{"version": 0.6, "generator": "Overpass API 0.7.62.8 e802775f", "osm3s": {"timestamp_osm_base": "2025-11-29T15:54:00Z", "copyright": "The data included in this document is from www.openstreetmap.org. The data is made available under ODbL."}, "elements": [{"type": "node", "id": 456214138, "lat": 12.9730205, "lon": 77.5804826, "tags": {"amenity": "bank", "atm": "yes", "brand": "State Bank of India", "brand:wikidata": "Q1340361", "brand:wikipedia": "en:State Bank of India", "name": "State Bank of India", "name:kn": "\u0c8e\u0cb8\u0ccd \u0cac\u0cbf \u0c90", "short_name": "SBI"}}, {"type": "node", "id": 456214157, "lat": 12.9738444, "lon": 77.578582, "tags": {"addr:street": "Kempe Gowda Road", "amenity": "bank", "atm": "yes", "brand": "Bank of India", "brand:wikidata": "Q2004439", "brand:wikipedia": "en:Bank of India", "name": "Bank of India", "name:en": "Bank of India", "short_name": "BoI", "website": "http://www.bankofindia.co.in"}}, {"type": "node", "id": 456214158, "lat": 12.973729, "lon": 77.578957, "tags": {"addr:street": "Kempe Gowda Road", "amenity": "bank", "atm": "yes", "brand": "Indian Bank", "brand:wikidata": "Q2003789", "brand:wikipedia": "en:Indian Bank", "name": "Indian Bank", "name:en": "Indian Bank", "name:kn": "\u0c87\u0c82\u0ca1\u0cbf\u0caf\u0ca8\u0ccd \u0cac\u0ccd\u0caf\u0cbe\u0c82\u0c95\u0ccd", "website": "https://www.indianbank.in/"}}, {"type": "node", "id": 525357113, "lat": 12.9990578, "lon": 77.5695202, "tags": {"addr:street": "Margosa Road", "amenity": "bank", "atm": "yes", "brand": "State Bank of India", "brand:wikidata": "Q1340361", "brand:wikipedia": "en:State Bank of India", "name": "State Bank of India", "name:kn": "\u0cad\u0cbe\u0cb0\u0ca4\u0cc0\u0caf \u0cb8\u0ccd\u0c9f\u0cc7\u0c9f\u0ccd \u0cac\u0ccd\u0caf\u0cbe\u0c82\u0c95\u0ccd", "operator": "SBI", "short_name": "SBI"}}, {"type": "node", "id": 576105013, "lat": 12.996974, "lon": 77.5678633, "tags": {"addr:postcode": "560003", "addr:street": "local_knowledge", "amenity": "bank", "atm": "yes", "brand": "ICICI Bank", "brand:wikidata": "Q1653258", "name": "ICICI Bank", "name:kn": "\u0c90\u0cb8\u0cbf\u0c90\u0cb8\u0cbf\u0c90 \u0cac\u0ccd\u0caf\u0cbe\u0c82\u0c95\u0cc1", "operator": "ICICI Bank", "operator:wikidata": "Q1653258", "short_name": "ICICI", "source": "local_knowledge"}}, {"type": "node", "id": 577027598, "lat": 12.9933312, "lon": 77.57187, "tags": {"addr:street": "Sampige Road", "amenity": "bank", "atm": "yes", "brand": "Corporation Bank", "brand:wikidata": "Q2003387", "brand:wikipedia": "en:Corporation Bank", "name": "Corporation Bank", "name:en": "Corporation Bank", "name:kn": "\u0c95\u0cbe\u0cb0\u0ccd\u0caa\u0cb0\u0cc7\u0cb7\u0ca8\u0ccd \u0cac\u0ccd\u0caf\u0cbe\u0c82\u0c95\u0ccd", "website": "https://corpbank.com/"}}, {"type": "node", "id": 598211169, "lat": 13.0016893, "lon": 77.5694475, "tags": {"addr:street": "Margosa Road", "amenity": "bank", "atm": "yes", "brand": "Bank of India", "brand:wikidata": "Q2004439", "brand:wikipedia": "en:Bank of India", "check_date": "2024-05-12", "name": "Bank of India", "name:en": "Bank of India", "operator": "Bank of India", "short_name": "BoI", "website": "http://www.bankofindia.co.in"}}, {"type": "node", "id": 616321839, "lat": 13.0019378, "lon": 77.5665159, "tags": {"amenity": "bank", "atm": "yes", "check_date": "2025-07-11", "name": "SVC Bank", "operator": "Shamrao Vittal Cooperative"}}, {"type": "node", "id": 619348631, "lat": 13.0011328, "lon": 77.5691982, "tags": {"addr:street": "Margosa Road", "amenity": "bank", "brand": "Kotak Mahindra Bank", "brand:wikidata": "Q2040404", "name": "Kotak Mahindra Bank", "name:kn": "\u0c95\u0ccb\u0c9f\u0c95\u0ccd \u0cae\u0cb9\u0cbf\u0c82\u0ca6\u0ccd\u0cb0 \u0cac\u0ccd\u0caf\u0cbe\u0c82\u0c95\u0ccd"}}, {"type": "node", "id": 661983031, "lat": 12.9819402, "lon": 77.5955017, "tags": {"addr:city": "Bangalore", "addr:postcode": "560001", "addr:street": "Raj Bhavan Road", "amenity": "bank", "atm": "yes", "brand": "State Bank of India", "brand:wikidata": "Q1340361", "brand:wikipedia": "en:State Bank of India", "name": "State Bank of India", "name:kn": "\u0cad\u0cbe\u0cb0\u0ca4\u0cc0\u0caf \u0cb8\u0ccd\u0c9f\u0cc7\u0c9f\u0ccd \u0cac\u0ccd\u0caf\u0cbe\u0c82\u0c95\u0ccd", "short_name": "SBI", "website": "https://www.sbi.co.in"}}, {"type": "node", "id": 661983042, "lat": 12.9762175, "lon": 77.5993135, "tags": {"amenity": "bank", "atm": "yes", "brand": "Kotak Mahindra Bank", "brand:wikidata": "Q2040404", "brand:wikipedia": "en:Kotak Mahindra Bank", "name": "Kotak Mahindra Bank", "name:en": "Kotak Mahindra Bank", "name:kn": "\u0c95\u0ccb\u0c9f\u0c95\u0ccd \u0cae\u0cb9\u0cbf\u0c82\u0ca6\u0ccd\u0cb0 \u0cac\u0ccd\u0caf\u0cbe\u0c82\u0c95\u0ccd", "website": "http://www.kotak.com"}}, {"type": "node", "id": 661983048, "lat": 12.9885568, "lon": 77.5923112, "tags": {"amenity": "bank", "brand": "Canara Bank", "brand:en": "Canara Bank", "brand:hi": "\u0915\u0947\u0928\u0930\u093e \u092c\u0948\u0902\u0915", "brand:kn": "\u0c95\u0cc6\u0ca8\u0cb0\u0cbe \u0cac\u0ccd\u0caf\u0cbe\u0c82\u0c95\u0ccd", "brand:pa": "\u0a15\u0a47\u0a28\u0a30\u0a3e \u0a2c\u0a48\u0a02\u0a15", "brand:pnb": "\u06a9\u06cc\u0646\u0631\u0627 \u0628\u06cc\u0646\u06a9", "brand:ur": "\u06a9\u06cc\u0646\u0631\u0627 \u0628\u06cc\u0646\u06a9", "brand:wikidata": "Q2003777", "name": "Canara Bank", "name:en": "Canara Bank", "name:hi": "\u0915\u0947\u0928\u0930\u093e \u092c\u0948\u0902\u0915", "name:kn": "\u0c95\u0cc6\u0ca8\u0cb0\u0cbe \u0cac\u0ccd\u0caf\u0cbe\u0c82\u0c95\u0ccd", "name:pa": "\u0a15\u0a47\u0a28\u0a30\u0a3e \u0a2c\u0a48\u0a02\u0a15", "name:pnb": "\u06a9\u06cc\u0646\u0631\u0627 \u0628\u06cc\u0646\u06a9", "name:ur": "\u06a9\u06cc\u0646\u0631\u0627 \u0628\u06cc\u0646\u06a9"}}, {"type": "node", "id": 661983059, "lat": 12.9888226, "lon": 77.592415, "tags": {"amenity": "bank", "atm": "yes", "brand": "HDFC Bank", "brand:wikidata": "Q631047", "brand:wikipedia": "en:HDFC Bank", "name": "HDFC Bank", "name:kn": "\u0c8e\u0c9a\u0ccd \u0ca1\u0cbf \u0c8e\u0cab\u0ccd \u0cb8\u0cbf", "short_name": "HDFC", "website": "https://www.hdfcbank.com"}}, {"type": "node", "id": 663317713, "lat": 12.9681567, "lon": 77.5876645, "tags": {"amenity": "bank", "brand": "Canara Bank", "brand:en": "Canara Bank", "brand:hi": "\u0915\u0947\u0928\u0930\u093e \u092c\u0948\u0902\u0915", "brand:kn": "\u0c95\u0cc6\u0ca8\u0cb0\u0cbe \u0cac\u0ccd\u0caf\u0cbe\u0c82\u0c95\u0ccd", "brand:pa": "\u0a15\u0a47\u0a28\u0a30\u0a3e \u0a2c\u0a48\u0a02\u0a15", "brand:pnb": "\u06a9\u06cc\u0646\u0631\u0627 \u0628\u06cc\u0646\u06a9", "brand:ur": "\u06a9\u06cc\u0646\u0631\u0627 \u0628\u06cc\u0646\u06a9", "brand:wikidata": "Q2003777", "brand:wikipedia": "en:Canara Bank", "brand:wikipedia:pa": "\u0a15\u0a47\u0a28\u0a30\u0a3e \u0a2c\u0a48\u0a02\u0a15", "check_date": "2024-03-02", "name": "Canara Bank", "name:en": "Canara Bank", "name:hi": "\u0915\u0947\u0928\u0930\u093e \u092c\u0948\u0902\u0915", "name:kn": "\u0c95\u0cc6\u0ca8\u0cb0\u0cbe \u0cac\u0ccd\u0caf\u0cbe\u0c82\u0c95\u0ccd", "name:pa": "\u0a15\u0a47\u0a28\u0a30\u0a3e \u0a2c\u0a48\u0a02\u0a15", "name:pnb": "\u06a9\u06cc\u0646\u0631\u0627 \u0628\u06cc\u0646\u06a9", "name:ur": "\u06a9\u06cc\u0646\u0631\u0627 \u0628\u06cc\u0646\u06a9", "website": "https://www.canarabank.com/"}}, {"type": "node", "id": 663317714, "lat": 12.9681499, "lon": 77.5880527, "tags": {"amenity": "bank", "brand": "State Bank of India", "brand:wikidata": "Q1340361", "brand:wikipedia": "en:State Bank of India", "name": "State Bank of India", "name:kn": "\u0c8e\u0cb8\u0ccd \u0cac\u0cbf \u0c90", "short_name": "SBI", "website": "https://www.sbi.co.in"}}, {"type": "node", "id": 663568577, "lat": 12.9734198, "lon": 77.5956885}, {"type": "node", "id": 663568578, "lat": 12.9732385, "lon": 77.5954929}, {"type": "node", "id": 663568589, "lat": 12.9735669, "lon": 77.5954642}, {"type": "node", "id": 663573129, "lat": 12.9734846, "lon": 77.595368}, {"type": "node", "id": 663573140, "lat": 12.9751175, "lon": 77.5976204, "tags": {"addr:street": "Kasturba Road", "amenity": "bank", "brand": "Dhanlaxmi Bank", "brand:wikidata": "Q2040440", "name": "Dhanlaxmi Bank"}}, {"type": "node", "id": 663592955, "lat": 12.9756522, "lon": 77.597345, "tags": {"addr:city": "Bangalore", "addr:street": "Kasturba Road", "amenity": "bank", "brand": "Yes Bank", "brand:wikidata": "Q2040394", "brand:wikipedia": "en:Yes Bank", "name": "Yes Bank", "name:en": "YES Bank", "name:kn": "\u0caf\u0cb8\u0ccd \u0cac\u0ccd\u0caf\u0cbe\u0c82\u0c95\u0ccd", "website": "https://www.yesbank.in"}}, {"type": "node", "id": 663599410, "lat": 12.9723026, "lon": 77.5863596, "tags": {"amenity": "bank", "brand": "Corporation Bank", "brand:wikidata": "Q2003387", "brand:wikipedia": "en:Corporation Bank", "name": "Corporation Bank", "name:en": "Corporation Bank", "name:kn": "\u0c95\u0cbe\u0cb0\u0ccd\u0caa\u0cb0\u0cc7\u0cb7\u0ca8\u0ccd \u0cac\u0ccd\u0caf\u0cbe\u0c82\u0c95\u0ccd", "website": "https://corpbank.com/"}}, {"type": "node", "id": 665871291, "lat": 12.98693, "lon": 77.5951971, "tags": {"addr:street": "Cunningham Road", "amenity": "bank", "atm": "yes", "brand": "Canara Bank", "brand:en": "Canara Bank", "brand:hi": "\u0915\u0947\u0928\u0930\u093e \u092c\u0948\u0902\u0915", "brand:kn": "\u0c95\u0cc6\u0ca8\u0cb0\u0cbe \u0cac\u0ccd\u0caf\u0cbe\u0c82\u0c95\u0ccd", "brand:pa": "\u0a15\u0a47\u0a28\u0a30\u0a3e \u0a2c\u0a48\u0a02\u0a15", "brand:pnb": "\u06a9\u06cc\u0646\u0631\u0627 \u0628\u06cc\u0646\u06a9", "brand:ur": "\u06a9\u06cc\u0646\u0631\u0627 \u0628\u06cc\u0646\u06a9", "brand:wikidata": "Q2003777", "brand:wikipedia": "en:Canara Bank", "brand:wikipedia:pa": "\u0a15\u0a47\u0a28\u0a30\u0a3e \u0a2c\u0a48\u0a02\u0a15", "name": "Canara Bank", "name:en": "Canara Bank", "name:hi": "\u0915\u0947\u0928\u0930\u093e \u092c\u0948\u0902\u0915", "name:kn": "\u0c95\u0cc6\u0ca8\u0cb0\u0cbe \u0cac\u0ccd\u0caf\u0cbe\u0c82\u0c95\u0ccd", "name:pa": "\u0a15\u0a47\u0a28\u0a30\u0a3e \u0a2c\u0a48\u0a02\u0a15", "name:pnb": "\u06a9\u06cc\u0646\u0631\u0627 \u0628\u06cc\u0646\u06a9", "name:ur": "\u06a9\u06cc\u0646\u0631\u0627 \u0628\u06cc\u0646\u06a9", "website": "https://www.canarabank.com/"}}, {"type": "node", "id": 665871301, "lat": 12.9993627, "lon": 77.6008367, "tags": {"addr:street": "Benson Cross Road", "amenity": "bank", "atm": "yes", "brand": "Indian Bank", "brand:wikidata": "Q2003789", "brand:wikipedia": "en:Indian Bank", "name": "Indian Bank", "name:en": "Indian Bank", "name:kn": "\u0c87\u0c82\u0ca1\u0cbf\u0caf\u0ca8\u0ccd \u0cac\u0ccd\u0caf\u0cbe\u0c82\u0c95\u0ccd", "website": "https://www.indianbank.in/"}}, {"type": "node", "id": 673972546, "lat": 12.9725957, "lon": 77.6014536}, {"type": "node", "id": 673972548, "lat": 12.9722012, "lon": 77.6014366}, {"type": "node", "id": 673972551, "lat": 12.9721817, "lon": 77.6019127}, {"type": "node", "id": 673972553, "lat": 12.9726617, "lon": 77.6019334}, {"type": "node", "id": 677286839, "lat": 12.9706824, "lon": 77.599609, "tags": {"addr:city": "Bangalore", "addr:street": "Lavelle Road", "amenity": "bank", "atm": "yes", "brand": "ICICI Bank", "brand:wikidata": "Q1653258", "name": "ICICI Bank", "name:en": "ICICI Bank", "name:kn": "\u0c90\u0cb8\u0cbf\u0c90\u0cb8\u0cbf\u0c90 \u0cac\u0ccd\u0caf\u0cbe\u0c82\u0c95\u0cc1", "short_name": "ICICI", "website": "https://www.icicibank.com"}}, {"type": "node", "id": 677286841, "lat": 12.9708631, "lon": 77.6010396, "tags": {"amenity": "bank", "atm": "yes", "branch": "Cantonment", "brand": "Bank of India", "brand:wikidata": "Q2004439", "brand:wikipedia": "en:Bank of India", "name": "Bank of India", "name:en": "Bank of India", "operator": "Bank of India", "short_name": "BoI", "website": "http://www.bankofindia.co.in"}}, {"type": "node", "id": 1101598769, "lat": 12.9809052, "lon": 77.5754392, "tags": {"addr:street": "Sheshadri Road", "amenity": "bank", "atm": "yes", "brand": "Axis Bank", "brand:wikidata": "Q2003549", "brand:wikipedia": "en:Axis Bank", "name": "Axis Bank", "name:en": "Axis Bank", "name:kn": "\u0c86\u0c95\u0ccd\u0cb8\u0cbf\u0cb8\u0ccd \u0cac\u0ccd\u0caf\u0cbe\u0c82\u0c95\u0ccd", "website": "https://www.axisbank.com"}}, {"type": "node", "id": 1462691613, "lat": 13.002535, "lon": 77.578333, "tags": {"amenity": "bank", "atm": "yes", "brand": "State Bank of India", "brand:wikidata": "Q1340361", "brand:wikipedia": "en:State Bank of India", "name": "State Bank of India", "name:kn": "\u0c8e\u0cb8\u0ccd \u0cac\u0cbf \u0c90", "short_name": "SBI", "website": "https://www.sbi.co.in"}}, {"type": "node", "id": 1462692195, "lat": 13.0022031, "lon": 77.5783102, "tags": {"amenity": "bank", "atm": "yes", "brand": "Canara Bank", "brand:en": "Canara Bank", "brand:hi": "\u0915\u0947\u0928\u0930\u093e \u092c\u0948\u0902\u0915", "brand:kn": "\u0c95\u0cc6\u0ca8\u0cb0\u0cbe \u0cac\u0ccd\u0caf\u0cbe\u0c82\u0c95\u0ccd", "brand:pa": "\u0a15\u0a47\u0a28\u0a30\u0a3e \u0a2c\u0a48\u0a02\u0a15", "brand:pnb": "\u06a9\u06cc\u0646\u0631\u0627 \u0628\u06cc\u0646\u06a9", "brand:ur": "\u06a9\u06cc\u0646\u0631\u0627 \u0628\u06cc\u0646\u06a9", "brand:wikidata": "Q2003777", "brand:wikipedia": "en:Canara Bank", "brand:wikipedia:pa": "\u0a15\u0a47\u0a28\u0a30\u0a3e \u0a2c\u0a48\u0a02\u0a15", "name": "Canara Bank", "name:en": "Canara Bank", "name:hi": "\u0915\u0947\u0928\u0930\u093e \u092c\u0948\u0902\u0915", "name:kn": "\u0c95\u0cc6\u0ca8\u0cb0\u0cbe \u0cac\u0ccd\u0caf\u0cbe\u0c82\u0c95\u0ccd", "name:pa": "\u0a15\u0a47\u0a28\u0a30\u0a3e \u0a2c\u0a48\u0a02\u0a15", "name:pnb": "\u06a9\u06cc\u0646\u0631\u0627 \u0628\u06cc\u0646\u06a9", "name:ur": "\u06a9\u06cc\u0646\u0631\u0627 \u0628\u06cc\u0646\u06a9", "website": "https://www.canarabank.com/"}}, {"type": "node", "id": 1469274353, "lat": 12.9947968, "lon": 77.6152664, "tags": {"amenity": "bank", "atm": "yes", "brand": "ICICI Bank", "brand:wikidata": "Q1653258", "name": "ICICI Bank", "name:en": "ICICI Bank", "name:kn": "\u0c90\u0cb8\u0cbf\u0c90\u0cb8\u0cbf\u0c90 \u0cac\u0ccd\u0caf\u0cbe\u0c82\u0c95\u0cc1", "short_name": "ICICI", "website": "https://www.icicibank.com"}}, {"type": "node", "id": 1473972586, "lat": 12.950339, "lon": 77.5673443, "tags": {"amenity": "bank", "atm": "yes", "brand": "ICICI Bank", "brand:wikidata": "Q1653258", "name": "ICICI Bank", "name:en": "ICICI Bank", "name:kn": "\u0c90\u0cb8\u0cbf\u0c90\u0cb8\u0cbf\u0c90 \u0cac\u0ccd\u0caf\u0cbe\u0c82\u0c95\u0cc1", "short_name": "ICICI", "website": "https://www.icicibank.com", "wheelchair": "no"}}, {"type": "node", "id": 1474297275, "lat": 12.9918131, "lon": 77.6116694, "tags": {"addr:postcode": "560005", "addr:street": "ST JOHNS CHURCH ROAD", "alt_name": "Union Bank, St. John's Church Road Branch", "amenity": "bank", "atm": "yes", "brand": "Union Bank of India", "brand:wikidata": "Q2004078", "brand:wikipedia": "en:Union Bank of India", "name": "Union Bank of India", "name:en": "Union Bank of India", "name:kn": "\u0caf\u0cc2\u0ca8\u0cbf\u0caf\u0ca8\u0ccd \u0cac\u0ccd\u0caf\u0cbe\u0c82\u0c95\u0ccd", "short_name": "UBI", "website": "https://www.unionbankofindia.co.in/"}}, {"type": "node", "id": 1474308856, "lat": 12.9826498, "lon": 77.6104195, "tags": {"addr:postcode": "560042", "addr:street": "Commercial Street", "amenity": "bank", "atm": "yes", "name": "Corp Bank", "name:kn": "\u0c95\u0cbe\u0cb0\u0ccd\u0caa\u0ccd \u0cac\u0ccd\u0caf\u0cbe\u0c82\u0c95\u0ccd"}}, {"type": "node", "id": 1474820320, "lat": 12.9950177, "lon": 77.5716418, "tags": {"amenity": "bank", "brand": "State Bank of India", "brand:wikidata": "Q1340361", "brand:wikipedia": "en:State Bank of India", "name": "State Bank of India", "name:kn": "\u0cad\u0cbe\u0cb0\u0ca4\u0cc0\u0caf \u0cb8\u0ccd\u0c9f\u0cc7\u0c9f\u0ccd \u0cac\u0ccd\u0caf\u0cbe\u0c82\u0c95\u0ccd", "short_name": "SBI", "website": "https://www.sbi.co.in"}}, {"type": "node", "id": 1568922438, "lat": 12.9643413, "lon": 77.5852008}, {"type": "node", "id": 1568922462, "lat": 12.9641084, "lon": 77.5851245}, {"type": "node", "id": 1568922499, "lat": 12.9645106, "lon": 77.5856471}, {"type": "node", "id": 1568922505, "lat": 12.9642157, "lon": 77.5850376}, {"type": "node", "id": 1568922525, "lat": 12.9646179, "lon": 77.5855602}, {"type": "node", "id": 1568922554, "lat": 12.964233, "lon": 77.5852865}, {"type": "node", "id": 1614268185, "lat": 12.9869904, "lon": 77.5786112, "tags": {"amenity": "bank", "atm": "yes", "brand": "Canara Bank", "brand:en": "Canara Bank", "brand:hi": "\u0915\u0947\u0928\u0930\u093e \u092c\u0948\u0902\u0915", "brand:kn": "\u0c95\u0cc6\u0ca8\u0cb0\u0cbe \u0cac\u0ccd\u0caf\u0cbe\u0c82\u0c95\u0ccd", "brand:pa": "\u0a15\u0a47\u0a28\u0a30\u0a3e \u0a2c\u0a48\u0a02\u0a15", "brand:pnb": "\u06a9\u06cc\u0646\u0631\u0627 \u0628\u06cc\u0646\u06a9", "brand:ur": "\u06a9\u06cc\u0646\u0631\u0627 \u0628\u06cc\u0646\u06a9", "brand:wikidata": "Q2003777", "brand:wikipedia": "en:Canara Bank", "brand:wikipedia:pa": "\u0a15\u0a47\u0a28\u0a30\u0a3e \u0a2c\u0a48\u0a02\u0a15", "name": "Canara Bank", "name:en": "Canara Bank", "name:hi": "\u0915\u0947\u0928\u0930\u093e \u092c\u0948\u0902\u0915", "name:kn": "\u0c95\u0cc6\u0ca8\u0cb0\u0cbe \u0cac\u0ccd\u0caf\u0cbe\u0c82\u0c95\u0ccd", "name:pa": "\u0a15\u0a47\u0a28\u0a30\u0a3e \u0a2c\u0a48\u0a02\u0a15", "name:pnb": "\u06a9\u06cc\u0646\u0631\u0627 \u0628\u06cc\u0646\u06a9", "name:ur": "\u06a9\u06cc\u0646\u0631\u0627 \u0628\u06cc\u0646\u06a9", "website": "https://www.canarabank.com/", "wheelchair": "no"}}, {"type": "node", "id": 1614268190, "lat": 12.9876512, "lon": 77.5799188, "tags": {"amenity": "bank", "atm": "yes", "brand": "ICICI Bank", "brand:wikidata": "Q1653258", "name": "ICICI Bank", "name:en": "ICICI Bank", "name:kn": "\u0c90\u0cb8\u0cbf\u0c90\u0cb8\u0cbf\u0c90 \u0cac\u0ccd\u0caf\u0cbe\u0c82\u0c95\u0cc1", "short_name": "ICICI", "website": "https://www.icicibank.com", "wheelchair": "no"}}, {"type": "node", "id": 1617398438, "lat": 12.9909647, "lon": 77.5748146, "tags": {"amenity": "bank", "atm": "yes", "brand": "Canara Bank", "brand:en": "Canara Bank", "brand:hi": "\u0915\u0947\u0928\u0930\u093e \u092c\u0948\u0902\u0915", "brand:kn": "\u0c95\u0cc6\u0ca8\u0cb0\u0cbe \u0cac\u0ccd\u0caf\u0cbe\u0c82\u0c95\u0ccd", "brand:pa": "\u0a15\u0a47\u0a28\u0a30\u0a3e \u0a2c\u0a48\u0a02\u0a15", "brand:pnb": "\u06a9\u06cc\u0646\u0631\u0627 \u0628\u06cc\u0646\u06a9", "brand:ur": "\u06a9\u06cc\u0646\u0631\u0627 \u0628\u06cc\u0646\u06a9", "brand:wikidata": "Q2003777", "brand:wikipedia": "en:Canara Bank", "brand:wikipedia:pa": "\u0a15\u0a47\u0a28\u0a30\u0a3e \u0a2c\u0a48\u0a02\u0a15", "name": "Canara Bank", "name:en": "Canara Bank", "name:hi": "\u0915\u0947\u0928\u0930\u093e \u092c\u0948\u0902\u0915", "name:kn": "\u0c95\u0cc6\u0ca8\u0cb0\u0cbe \u0cac\u0ccd\u0caf\u0cbe\u0c82\u0c95\u0ccd", "name:pa": "\u0a15\u0a47\u0a28\u0a30\u0a3e \u0a2c\u0a48\u0a02\u0a15", "name:pnb": "\u06a9\u06cc\u0646\u0631\u0627 \u0628\u06cc\u0646\u06a9", "name:ur": "\u06a9\u06cc\u0646\u0631\u0627 \u0628\u06cc\u0646\u06a9", "website": "https://www.canarabank.com/"}}, {"type": "node", "id": 1666861677, "lat": 12.9668886, "lon": 77.5993311, "tags": {"amenity": "bank", "brand": "Bank of Baroda", "brand:wikidata": "Q2003797", "level": "1", "name": "Bank of Baroda"}}, {"type": "node", "id": 1791991768, "lat": 12.9551211, "lon": 77.5663064, "tags": {"amenity": "bank", "atm": "yes", "brand": "HDFC Bank", "brand:wikidata": "Q631047", "brand:wikipedia": "en:HDFC Bank", "name": "HDFC Bank", "short_name": "HDFC", "website": "https://www.hdfcbank.com", "wheelchair": "no"}}, {"type": "node", "id": 1796636345, "lat": 12.9500847, "lon": 77.5679508, "tags": {"amenity": "bank", "atm": "no", "designation": "Karnatka State Industrial Co-operative Bank", "name": "Karnatka Rajya Kaigarika Sahakari Bank"}}, {"type": "node", "id": 1806971412, "lat": 12.95954, "lon": 77.5685551, "tags": {"amenity": "bank", "atm": "yes", "brand": "Canara Bank", "brand:en": "Canara Bank", "brand:hi": "\u0915\u0947\u0928\u0930\u093e \u092c\u0948\u0902\u0915", "brand:kn": "\u0c95\u0cc6\u0ca8\u0cb0\u0cbe \u0cac\u0ccd\u0caf\u0cbe\u0c82\u0c95\u0ccd", "brand:pa": "\u0a15\u0a47\u0a28\u0a30\u0a3e \u0a2c\u0a48\u0a02\u0a15", "brand:pnb": "\u06a9\u06cc\u0646\u0631\u0627 \u0628\u06cc\u0646\u06a9", "brand:ur": "\u06a9\u06cc\u0646\u0631\u0627 \u0628\u06cc\u0646\u06a9", "brand:wikidata": "Q2003777", "brand:wikipedia": "en:Canara Bank", "brand:wikipedia:pa": "\u0a15\u0a47\u0a28\u0a30\u0a3e \u0a2c\u0a48\u0a02\u0a15", "name": "Canara Bank", "name:en": "Canara Bank", "name:hi": "\u0915\u0947\u0928\u0930\u093e \u092c\u0948\u0902\u0915", "name:kn": "\u0c95\u0cc6\u0ca8\u0cb0\u0cbe \u0cac\u0ccd\u0caf\u0cbe\u0c82\u0c95\u0ccd", "name:pa": "\u0a15\u0a47\u0a28\u0a30\u0a3e \u0a2c\u0a48\u0a02\u0a15", "name:pnb": "\u06a9\u06cc\u0646\u0631\u0627 \u0628\u06cc\u0646\u06a9", "name:ur": "\u06a9\u06cc\u0646\u0631\u0627 \u0628\u06cc\u0646\u06a9", "toilets:wheelchair": "no", "website": "https://www.canarabank.com/", "wheelchair": "no"}}, {"type": "node", "id": 1851618527, "lat": 12.9616161, "lon": 77.5986353, "tags": {"amenity": "bank", "atm": "yes", "brand": "IDFC First Bank", "brand:wikidata": "Q22031467", "brand:wikipedia": "en:IDFC First Bank", "drive_through": "no", "name": "IDFC First Bank", "not:brand:wikidata": "Q1653258", "operator": "IDFC First Bank"}}, {"type": "node", "id": 1851707242, "lat": 12.9655446, "lon": 77.601164, "tags": {"addr:city": "Bengaluru", "addr:district": "Bengaluru Urban", "addr:housenumber": "8/24", "addr:postcode": "560025", "addr:street": "Richmond Road", "amenity": "bank", "atm": "yes", "brand": "HDFC Bank", "brand:wikidata": "Q631047", "brand:wikipedia": "en:HDFC Bank", "name": "HDFC Bank", "name:kn": "\u0c8e\u0c9a\u0ccd \u0ca1\u0cbf \u0c8e\u0cab\u0ccd \u0cb8\u0cbf", "short_name": "HDFC", "website": "https://www.hdfcbank.com"}}, {"type": "node", "id": 2014232345, "lat": 12.9700251, "lon": 77.5799594, "tags": {"amenity": "bank", "atm": "yes", "branch": "Vysya Bank", "brand": "ING", "brand:wikidata": "Q645708", "name": "ING", "wheelchair": "no"}}, {"type": "node", "id": 2014238900, "lat": 12.9732008, "lon": 77.5789268, "tags": {"amenity": "bank", "atm": "yes", "brand": "ICICI Bank", "brand:wikidata": "Q1653258", "name": "ICICI Bank", "name:en": "ICICI Bank", "name:kn": "\u0c90\u0cb8\u0cbf\u0c90\u0cb8\u0cbf\u0c90 \u0cac\u0ccd\u0caf\u0cbe\u0c82\u0c95\u0cc1", "short_name": "ICICI", "website": "https://www.icicibank.com", "wheelchair": "no"}}, {"type": "node", "id": 2314538270, "lat": 13.0012808, "lon": 77.5783329, "tags": {"amenity": "bank", "atm": "yes", "brand": "ICICI Bank", "brand:wikidata": "Q1653258", "name": "ICICI Bank", "name:kn": "\u0c90\u0cb8\u0cbf\u0c90\u0cb8\u0cbf\u0c90", "short_name": "ICICI"}}, {"type": "node", "id": 2314538271, "lat": 13.001239, "lon": 77.5783221, "tags": {"amenity": "bank", "atm": "yes", "brand": "HDFC Bank", "brand:wikidata": "Q631047", "name": "HDFC Bank", "short_name": "HDFC"}}, {"type": "node", "id": 2314538273, "lat": 13.0002354, "lon": 77.5781558, "tags": {"amenity": "bank", "atm": "yes", "brand": "Karnataka Bank", "brand:wikidata": "Q2042632", "name": "Karnataka Bank", "name:kn": "\u0c95\u0cb0\u0ccd\u0ca8\u0cbe\u0c9f\u0c95 \u0cac\u0ccd\u0caf\u0cbe\u0c82\u0c95\u0ccd"}}, {"type": "node", "id": 2468465645, "lat": 12.9921952, "lon": 77.5754609, "tags": {"amenity": "bank", "atm": "yes"}}, {"type": "node", "id": 2533910830, "lat": 13.0022734, "lon": 77.6177342, "tags": {"amenity": "bank", "atm": "yes", "brand": "State Bank of India", "brand:wikidata": "Q1340361", "brand:wikipedia": "en:State Bank of India", "name": "State Bank of India", "name:kn": "\u0cad\u0cbe\u0cb0\u0ca4\u0cc0\u0caf \u0cb8\u0ccd\u0c9f\u0cc7\u0c9f\u0ccd \u0cac\u0ccd\u0caf\u0cbe\u0c82\u0c95\u0ccd", "short_name": "SBI", "toilets:wheelchair": "no", "wheelchair": "limited"}}, {"type": "node", "id": 2631157902, "lat": 12.9943529, "lon": 77.5946809, "tags": {"amenity": "bank", "atm": "yes", "brand": "Canara Bank", "brand:en": "Canara Bank", "brand:hi": "\u0915\u0947\u0928\u0930\u093e \u092c\u0948\u0902\u0915", "brand:kn": "\u0c95\u0cc6\u0ca8\u0cb0\u0cbe \u0cac\u0ccd\u0caf\u0cbe\u0c82\u0c95\u0ccd", "brand:pa": "\u0a15\u0a47\u0a28\u0a30\u0a3e \u0a2c\u0a48\u0a02\u0a15", "brand:pnb": "\u06a9\u06cc\u0646\u0631\u0627 \u0628\u06cc\u0646\u06a9", "brand:ur": "\u06a9\u06cc\u0646\u0631\u0627 \u0628\u06cc\u0646\u06a9", "brand:wikidata": "Q2003777", "brand:wikipedia": "en:Canara Bank", "brand:wikipedia:pa": "\u0a15\u0a47\u0a28\u0a30\u0a3e \u0a2c\u0a48\u0a02\u0a15", "name": "Canara Bank", "name:en": "Canara Bank", "name:hi": "\u0915\u0947\u0928\u0930\u093e \u092c\u0948\u0902\u0915", "name:kn": "\u0c95\u0cc6\u0ca8\u0cb0\u0cbe \u0cac\u0ccd\u0caf\u0cbe\u0c82\u0c95\u0ccd", "name:pa": "\u0a15\u0a47\u0a28\u0a30\u0a3e \u0a2c\u0a48\u0a02\u0a15", "name:pnb": "\u06a9\u06cc\u0646\u0631\u0627 \u0628\u06cc\u0646\u06a9", "name:ur": "\u06a9\u06cc\u0646\u0631\u0627 \u0628\u06cc\u0646\u06a9", "opening_hours": "24/7", "website": "https://www.canarabank.com/"}}, {"type": "node", "id": 2631196042, "lat": 13.0019713, "lon": 77.5723357, "tags": {"amenity": "bank", "atm": "yes", "brand": "Canara Bank", "brand:en": "Canara Bank", "brand:hi": "\u0915\u0947\u0928\u0930\u093e \u092c\u0948\u0902\u0915", "brand:kn": "\u0c95\u0cc6\u0ca8\u0cb0\u0cbe \u0cac\u0ccd\u0caf\u0cbe\u0c82\u0c95\u0ccd", "brand:pa": "\u0a15\u0a47\u0a28\u0a30\u0a3e \u0a2c\u0a48\u0a02\u0a15", "brand:pnb": "\u06a9\u06cc\u0646\u0631\u0627 \u0628\u06cc\u0646\u06a9", "brand:ur": "\u06a9\u06cc\u0646\u0631\u0627 \u0628\u06cc\u0646\u06a9", "brand:wikidata": "Q2003777", "brand:wikipedia": "en:Canara Bank", "brand:wikipedia:pa": "\u0a15\u0a47\u0a28\u0a30\u0a3e \u0a2c\u0a48\u0a02\u0a15", "name": "Canara Bank", "name:en": "Canara Bank", "name:hi": "\u0915\u0947\u0928\u0930\u093e \u092c\u0948\u0902\u0915", "name:kn": "\u0c95\u0cc6\u0ca8\u0cb0\u0cbe \u0cac\u0ccd\u0caf\u0cbe\u0c82\u0c95\u0ccd", "name:pa": "\u0a15\u0a47\u0a28\u0a30\u0a3e \u0a2c\u0a48\u0a02\u0a15", "name:pnb": "\u06a9\u06cc\u0646\u0631\u0627 \u0628\u06cc\u0646\u06a9", "name:ur": "\u06a9\u06cc\u0646\u0631\u0627 \u0628\u06cc\u0646\u06a9", "website": "https://www.canarabank.com/"}}, {"type": "node", "id": 2774680147, "lat": 12.9652714, "lon": 77.5985205, "tags": {"addr:housename": "Ittiam", "addr:street": "Richmond Road", "amenity": "bank", "atm": "yes", "brand": "HDFC Bank", "brand:wikidata": "Q631047", "brand:wikipedia": "en:HDFC Bank", "name": "HDFC Bank", "name:kn": "\u0c8e\u0c9a\u0ccd \u0ca1\u0cbf \u0c8e\u0cab\u0ccd \u0cb8\u0cbf", "short_name": "HDFC", "source": "www.hdfcbank.com", "website": "https://www.hdfcbank.com"}}, {"type": "node", "id": 2868502488, "lat": 12.9573933, "lon": 77.582077, "tags": {"amenity": "bank", "atm": "yes", "brand": "Dena Bank", "brand:wikidata": "Q3595747", "brand:wikipedia": "en:Dena Bank", "name": "Dena Bank", "name:en": "Dena Bank", "name:kn": "\u0ca6\u0cc7\u0ca8 \u0cac\u0ccd\u0caf\u0cbe\u0c82\u0c95\u0ccd", "operator": "Dena Bank", "website": "http://www.denabank.com"}}, {"type": "node", "id": 3010263823, "lat": 12.9540038, "lon": 77.5801262, "tags": {"amenity": "bank", "atm": "yes", "brand": "Karnataka Bank", "brand:wikidata": "Q2042632", "name": "Karnataka Bank", "name:kn": "\u0c95\u0cb0\u0ccd\u0ca8\u0cbe\u0c9f\u0c95 \u0cac\u0ccd\u0caf\u0cbe\u0c82\u0c95\u0ccd", "operator": "Karnataka Bank", "source": "voice, GPS"}}, {"type": "node", "id": 3010263824, "lat": 12.9606096, "lon": 77.5835432, "tags": {"amenity": "bank", "brand": "State Bank of India", "brand:wikidata": "Q1340361", "brand:wikipedia": "en:State Bank of India", "name": "State Bank of India", "name:kn": "\u0cad\u0cbe\u0cb0\u0ca4\u0cc0\u0caf \u0cb8\u0ccd\u0c9f\u0cc7\u0c9f\u0ccd \u0cac\u0ccd\u0caf\u0cbe\u0c82\u0c95\u0ccd", "short_name": "SBI", "source": "voice, GPS", "website": "https://www.sbi.co.in"}}, {"type": "node", "id": 3010263825, "lat": 12.9579091, "lon": 77.5823797, "tags": {"amenity": "bank", "atm": "no", "brand": "State Bank of India", "brand:wikidata": "Q1340361", "brand:wikipedia": "en:State Bank of India", "name": "State Bank of India", "name:kn": "\u0cad\u0cbe\u0cb0\u0ca4\u0cc0\u0caf \u0cb8\u0ccd\u0c9f\u0cc7\u0c9f\u0ccd \u0cac\u0ccd\u0caf\u0cbe\u0c82\u0c95\u0ccd", "operator": "State Bank of India", "short_name": "SBI", "source": "voice, GPS"}}, {"type": "node", "id": 3010263826, "lat": 12.9503526, "lon": 77.579806, "tags": {"amenity": "bank", "atm": "no", "branch": "Zonal Office", "brand": "Syndicate Bank", "brand:wikidata": "Q2004088", "name": "Syndicate Bank", "name:en": "Syndicate Bank", "name:kn": "\u0cb8\u0cbf\u0c82\u0ca1\u0cbf\u0c95\u0cc7\u0c9f\u0ccd \u0cac\u0ccd\u0caf\u0cbe\u0c82\u0c95\u0ccd", "source": "voice, GPS", "website": "https://www.syndicatebank.in", "wikimedia_commons": "Category:Syndicate Bank"}}, {"type": "node", "id": 3218746234, "lat": 12.9818224, "lon": 77.610245, "tags": {"addr:street": "Kamaraj Road", "amenity": "bank", "brand": "Corporation Bank", "brand:wikidata": "Q2003387", "brand:wikipedia": "en:Corporation Bank", "name": "Corporation Bank", "name:en": "Corporation Bank", "name:kn": "\u0c95\u0cbe\u0cb0\u0ccd\u0caa\u0cb0\u0cc7\u0cb7\u0ca8\u0ccd \u0cac\u0ccd\u0caf\u0cbe\u0c82\u0c95\u0ccd", "website": "https://corpbank.com/"}}, {"type": "node", "id": 3237635590, "lat": 12.9672272, "lon": 77.5871401, "tags": {"amenity": "bank", "brand": "Punjab National Bank", "brand:wikidata": "Q2743499", "name": "Punjab National Bank", "name:en": "Punjab National Bank", "name:kn": "\u0caa\u0c82\u0c9c\u0cbe\u0cac \u0cb0\u0cbe\u0cb7\u0ccd\u0c9f\u0ccd\u0cb0\u0cc0\u0caf \u0cac\u0ccd\u0caf\u0cbe\u0c82\u0c95\u0ccd", "short_name": "PNB", "website": "https://www.pnbindia.in"}}, {"type": "node", "id": 3292614929, "lat": 12.9736204, "lon": 77.6155256, "tags": {"amenity": "bank", "atm": "yes", "brand": "Citibank", "brand:wikidata": "Q857063", "name": "Citibank", "name:kn": "\u0cb8\u0cbf\u0c9f\u0cbf\u0cac\u0ccd\u0caf\u0cbe\u0c82\u0c95\u0ccd", "short_name": "Citi"}}, {"type": "node", "id": 3342048294, "lat": 12.9976504, "lon": 77.6095995, "tags": {"amenity": "bank", "brand": "Bank of Baroda", "brand:wikidata": "Q2003797", "brand:wikipedia": "en:Bank of Baroda", "name": "Bank of Baroda", "name:en": "Bank of Baroda", "name:kn": "\u0cac\u0ccd\u0caf\u0cbe\u0c82\u0c95\u0ccd \u0c86\u0cab\u0ccd \u0cac\u0cb0\u0ccb\u0ca1", "short_name": "BoB", "website": "http://www.bankofbaroda.com"}}, {"type": "node", "id": 3342080436, "lat": 12.9947176, "lon": 77.6153985, "tags": {"amenity": "bank", "atm": "yes", "brand": "IndusInd Bank", "brand:wikidata": "Q2040323", "brand:wikipedia": "en:Axis Bank", "check_date": "2024-05-19", "name": "IndusInd Bank", "name:en": "IndusInd Bank", "website": "https://www.axisbank.com"}}, {"type": "node", "id": 3342184333, "lat": 12.9974931, "lon": 77.6103558, "tags": {"amenity": "bank", "brand": "Axis Bank", "brand:wikidata": "Q2003549", "brand:wikipedia": "en:Axis Bank", "name": "Axis Bank", "name:en": "Axis Bank", "name:kn": "\u0c86\u0c95\u0ccd\u0cb8\u0cbf\u0cb8\u0ccd \u0cac\u0ccd\u0caf\u0cbe\u0c82\u0c95\u0ccd", "website": "https://www.axisbank.com"}}, {"type": "node", "id": 3342192953, "lat": 12.9982941, "lon": 77.608715, "tags": {"amenity": "bank", "brand": "Union Bank of India", "brand:wikidata": "Q2004078", "brand:wikipedia": "en:Corporation Bank", "check_date": "2024-05-19", "name": "Union Bank of India", "name:en": "Union Bank of India", "website": "https://corpbank.com/"}}, {"type": "node", "id": 3342219791, "lat": 13.0002582, "lon": 77.6112114, "tags": {"amenity": "bank", "atm": "yes", "brand": "State Bank of India", "brand:wikidata": "Q1340361", "brand:wikipedia": "en:State Bank of India", "name": "State Bank of India", "name:kn": "\u0cad\u0cbe\u0cb0\u0ca4\u0cc0\u0caf \u0cb8\u0ccd\u0c9f\u0cc7\u0c9f\u0ccd \u0cac\u0ccd\u0caf\u0cbe\u0c82\u0c95\u0ccd", "short_name": "SBI", "website": "https://www.sbi.co.in"}}, {"type": "node", "id": 3344233626, "lat": 12.9940387, "lon": 77.6156783, "tags": {"amenity": "bank", "atm": "yes", "brand": "Kotak Mahindra Bank", "brand:wikidata": "Q2040404", "brand:wikipedia": "en:Kotak Mahindra Bank", "name": "Kotak Mahindra Bank", "name:en": "Kotak Mahindra Bank", "name:kn": "\u0c95\u0ccb\u0c9f\u0c95\u0ccd \u0cae\u0cb9\u0cbf\u0c82\u0ca6\u0ccd\u0cb0 \u0cac\u0ccd\u0caf\u0cbe\u0c82\u0c95\u0ccd", "website": "http://www.kotak.com"}}, {"type": "node", "id": 3358130094, "lat": 12.9723229, "lon": 77.6017795}, {"type": "node", "id": 3358130097, "lat": 12.97254, "lon": 77.6015907}, {"type": "node", "id": 3358130131, "lat": 12.972331, "lon": 77.6015815}, {"type": "node", "id": 3358130145, "lat": 12.9726767, "lon": 77.6015674}, {"type": "node", "id": 3358130148, "lat": 12.9725318, "lon": 77.6017885}, {"type": "node", "id": 3406380502, "lat": 12.967159, "lon": 77.5891728, "tags": {"amenity": "bank", "atm": "yes", "brand": "Punjab National Bank", "brand:wikidata": "Q2743499", "ele": "1", "name": "Punjab National Bank", "name:en": "Punjab National Bank", "name:kn": "\u0caa\u0c82\u0c9c\u0cbe\u0cac \u0cb0\u0cbe\u0cb7\u0ccd\u0c9f\u0ccd\u0cb0\u0cc0\u0caf \u0cac\u0ccd\u0caf\u0cbe\u0c82\u0c95\u0ccd", "operator": "Punjab National Bank", "short_name": "PNB", "website": "https://www.pnbindia.in"}}, {"type": "node", "id": 3526180139, "lat": 13.0035234, "lon": 77.6166155, "tags": {"amenity": "bank", "atm": "yes", "brand": "ICICI Bank", "brand:wikidata": "Q1653258", "brand:wikipedia": "en:ICICI Bank", "name": "ICICI Bank", "name:en": "ICICI Bank", "name:kn": "\u0c90\u0cb8\u0cbf\u0c90\u0cb8\u0cbf\u0c90 \u0cac\u0ccd\u0caf\u0cbe\u0c82\u0c95\u0ccd", "short_name": "ICICI", "website": "https://www.icicibank.com", "wheelchair": "no"}}, {"type": "node", "id": 3527850981, "lat": 12.9916079, "lon": 77.6148985}, {"type": "node", "id": 3527850985, "lat": 12.9916611, "lon": 77.6147762}, {"type": "node", "id": 3527853795, "lat": 12.9917498, "lon": 77.6149635}, {"type": "node", "id": 3527853802, "lat": 12.991803, "lon": 77.6148412}, {"type": "node", "id": 3535249753, "lat": 12.9598601, "lon": 77.5715986}, {"type": "node", "id": 3535249754, "lat": 12.9598616, "lon": 77.5713708}, {"type": "node", "id": 3535249997, "lat": 12.9600049, "lon": 77.5715996}, {"type": "node", "id": 3535249998, "lat": 12.9600053, "lon": 77.5715451}, {"type": "node", "id": 3535250335, "lat": 12.9603725, "lon": 77.5715477}, {"type": "node", "id": 3535250337, "lat": 12.9603736, "lon": 77.5713745}, {"type": "node", "id": 3535450125, "lat": 12.9771468, "lon": 77.5761657}, {"type": "node", "id": 3535450128, "lat": 12.9771477, "lon": 77.5760503}, {"type": "node", "id": 3535450160, "lat": 12.9772357, "lon": 77.5761664}, {"type": "node", "id": 3535450164, "lat": 12.9772366, "lon": 77.576051}, {"type": "node", "id": 3546906645, "lat": 12.9719127, "lon": 77.6076587}, {"type": "node", "id": 3546906647, "lat": 12.9719697, "lon": 77.6078002}, {"type": "node", "id": 3546906650, "lat": 12.972071, "lon": 77.6075916}, {"type": "node", "id": 3546906654, "lat": 12.972128, "lon": 77.6077331}, {"type": "node", "id": 3760164254, "lat": 12.9751161, "lon": 77.6040333, "tags": {"amenity": "bank", "level": "0", "name": "Abu Dhabi Commercial Bank"}}, {"type": "node", "id": 3760192985, "lat": 12.9758241, "lon": 77.6043486, "tags": {"amenity": "bank", "brand": "State Bank of India", "brand:wikidata": "Q1340361", "brand:wikipedia": "en:State Bank of India", "level": "2", "name": "State Bank of India", "name:kn": "\u0cad\u0cbe\u0cb0\u0ca4\u0cc0\u0caf \u0cb8\u0ccd\u0c9f\u0cc7\u0c9f\u0ccd \u0cac\u0ccd\u0caf\u0cbe\u0c82\u0c95\u0ccd", "short_name": "SBI", "website": "https://www.sbi.co.in"}}, {"type": "node", "id": 3760200292, "lat": 12.975421, "lon": 77.6045772, "tags": {"amenity": "bank", "atm": "yes", "brand": "Canara Bank", "brand:en": "Canara Bank", "brand:hi": "\u0915\u0947\u0928\u0930\u093e \u092c\u0948\u0902\u0915", "brand:kn": "\u0c95\u0cc6\u0ca8\u0cb0\u0cbe \u0cac\u0ccd\u0caf\u0cbe\u0c82\u0c95\u0ccd", "brand:pa": "\u0a15\u0a47\u0a28\u0a30\u0a3e \u0a2c\u0a48\u0a02\u0a15", "brand:pnb": "\u06a9\u06cc\u0646\u0631\u0627 \u0628\u06cc\u0646\u06a9", "brand:ur": "\u06a9\u06cc\u0646\u0631\u0627 \u0628\u06cc\u0646\u06a9", "brand:wikidata": "Q2003777", "brand:wikipedia": "en:Canara Bank", "brand:wikipedia:pa": "\u0a15\u0a47\u0a28\u0a30\u0a3e \u0a2c\u0a48\u0a02\u0a15", "name": "Canara Bank", "name:en": "Canara Bank", "name:hi": "\u0915\u0947\u0928\u0930\u093e \u092c\u0948\u0902\u0915", "name:kn": "\u0c95\u0cc6\u0ca8\u0cb0\u0cbe \u0cac\u0ccd\u0caf\u0cbe\u0c82\u0c95\u0ccd", "name:pa": "\u0a15\u0a47\u0a28\u0a30\u0a3e \u0a2c\u0a48\u0a02\u0a15", "name:pnb": "\u06a9\u06cc\u0646\u0631\u0627 \u0628\u06cc\u0646\u06a9", "name:ur": "\u06a9\u06cc\u0646\u0631\u0627 \u0628\u06cc\u0646\u06a9", "website": "https://www.canarabank.com/"}}, {"type": "node", "id": 3760209816, "lat": 12.9755804, "lon": 77.6053256, "tags": {"amenity": "bank", "atm": "yes", "brand": "UCO Bank", "brand:wikidata": "Q2005310", "brand:wikipedia": "en:UCO Bank", "name": "UCO Bank", "name:en": "UCO Bank", "name:kn": "\u0caf\u0cc2\u0c95\u0cca \u0cac\u0ccd\u0caf\u0cbe\u0c82\u0c95\u0ccd", "old_name": "United Commercial Bank", "website": "https://www.ucobank.com"}}, {"type": "node", "id": 3760645311, "lat": 12.9761842, "lon": 77.602631, "tags": {"addr:postcode": "560001", "addr:street": "Mahatma Gandhi Road", "amenity": "bank", "atm": "yes", "brand": "Union Bank of India", "brand:wikidata": "Q2004078", "name": "Union Bank of India"}}, {"type": "node", "id": 3761074061, "lat": 12.9730522, "lon": 77.6085652, "tags": {"amenity": "bank", "brand": "State Bank of India", "brand:wikidata": "Q1340361", "brand:wikipedia": "en:State Bank of India", "level": "1", "name": "State Bank of India", "name:kn": "\u0cad\u0cbe\u0cb0\u0ca4\u0cc0\u0caf \u0cb8\u0ccd\u0c9f\u0cc7\u0c9f\u0ccd \u0cac\u0ccd\u0caf\u0cbe\u0c82\u0c95\u0ccd", "short_name": "SBI"}}, {"type": "node", "id": 3761261085, "lat": 12.9775007, "lon": 77.5883584, "tags": {"amenity": "bank", "atm": "yes", "brand": "Syndicate Bank", "brand:wikidata": "Q2004088", "level": "-1", "name": "Syndicate Bank", "name:en": "Syndicate Bank", "name:kn": "\u0cb8\u0cbf\u0c82\u0ca1\u0cbf\u0c95\u0cc7\u0c9f\u0ccd \u0cac\u0ccd\u0caf\u0cbe\u0c82\u0c95\u0ccd", "website": "https://www.syndicatebank.in"}}, {"type": "node", "id": 3761265943, "lat": 12.9782832, "lon": 77.5879912, "tags": {"amenity": "bank", "brand": "State Bank of India", "brand:wikidata": "Q1340361", "brand:wikipedia": "en:State Bank of India", "name": "State Bank of India", "name:kn": "\u0cb8\u0ccd\u0c9f\u0cc7\u0c9f\u0ccd \u0cac\u0ccd\u0caf\u0cbe\u0c82\u0c95\u0ccd \u0c86\u0cab\u0ccd \u0cae\u0cc8\u0cb8\u0cc2\u0cb0\u0cc1", "short_name": "SBI", "website": "https://www.sbi.co.in"}}, {"type": "node", "id": 3785881931, "lat": 12.9733286, "lon": 77.6167758, "tags": {"amenity": "bank", "atm": "yes", "brand": "Axis Bank", "brand:wikidata": "Q2003549", "brand:wikipedia": "en:Axis Bank", "level": "0", "name": "Axis Bank", "name:en": "Axis Bank", "name:kn": "\u0c85\u0c95\u0ccd\u0cb8\u0cbf\u0cb8\u0ccd \u0cac\u0ccd\u0caf\u0cbe\u0c82\u0c95\u0ccd", "website": "https://www.axisbank.com"}}, {"type": "node", "id": 3785884274, "lat": 12.9733953, "lon": 77.6169631, "tags": {"amenity": "bank", "brand": "Corporation Bank", "brand:wikidata": "Q2003387", "brand:wikipedia": "en:Corporation Bank", "level": "3", "name": "Corporation Bank", "name:en": "Corporation Bank", "name:kn": "\u0c95\u0cbe\u0cb0\u0ccd\u0caa\u0cb0\u0cc7\u0cb7\u0ca8\u0ccd \u0cac\u0ccd\u0caf\u0cbe\u0c82\u0c95\u0ccd", "website": "https://corpbank.com/"}}, {"type": "node", "id": 3785905427, "lat": 12.9733651, "lon": 77.6164843, "tags": {"amenity": "bank", "atm": "yes", "brand": "State Bank of India", "brand:wikidata": "Q1340361", "brand:wikipedia": "en:State Bank of India", "level": "0", "name": "State Bank of India", "name:kn": "\u0cad\u0cbe\u0cb0\u0ca4\u0cc0\u0caf \u0cb8\u0ccd\u0c9f\u0cc7\u0c9f\u0ccd \u0cac\u0ccd\u0caf\u0cbe\u0c82\u0c95\u0ccd", "short_name": "SBI"}}, {"type": "node", "id": 3785911557, "lat": 12.9734064, "lon": 77.6163313, "tags": {"amenity": "bank", "atm": "yes", "level": "0", "name": "Tamil Nadu Marcantile Bank"}}, {"type": "node", "id": 3808148855, "lat": 12.9741304, "lon": 77.6095504, "tags": {"amenity": "bank", "brand": "State Bank of India", "brand:wikidata": "Q1340361", "brand:wikipedia": "en:State Bank of India", "level": "0", "name": "State Bank of India", "name:kn": "\u0cad\u0cbe\u0cb0\u0ca4\u0cc0\u0caf \u0cb8\u0ccd\u0c9f\u0cc7\u0c9f\u0ccd \u0cac\u0ccd\u0caf\u0cbe\u0c82\u0c95\u0ccd", "short_name": "SBI", "website": "https://www.sbi.co.in"}}, {"type": "node", "id": 3808186286, "lat": 12.9739333, "lon": 77.6123872, "tags": {"amenity": "bank", "brand:wikidata": "Q5266685", "brand:wikipedia": "en:DCB Bank", "level": "0,1", "name": "DCB Bank", "name:en": "DCB Bank", "name:kn": "\u0ca1\u0cbf\u0cb8\u0cbf\u0cac\u0cbf \u0cac\u0ccd\u0caf\u0cbe\u0c82\u0c95\u0ccd", "website": "https://www.dcbbank.com"}}, {"type": "node", "id": 3808206692, "lat": 12.9731313, "lon": 77.6080088, "tags": {"amenity": "bank", "brand": "State Bank of India", "brand:wikidata": "Q1340361", "brand:wikipedia": "en:State Bank of India", "level": "3", "name": "State Bank of India", "name:kn": "\u0cad\u0cbe\u0cb0\u0ca4\u0cc0\u0caf \u0cb8\u0ccd\u0c9f\u0cc7\u0c9f\u0ccd \u0cac\u0ccd\u0caf\u0cbe\u0c82\u0c95\u0ccd", "short_name": "SBI"}}, {"type": "node", "id": 3808538485, "lat": 12.9729256, "lon": 77.6160971, "tags": {"addr:floor": "G;1", "amenity": "bank", "brand": "Kotak Mahindra Bank", "brand:wikidata": "Q2040404", "check_date": "2025-05-20", "level": "0;1", "name": "Kotak Mahindra Bank", "operator": "Kotak Mahindra Bank", "operator:wikidata": "Q2040404"}}, {"type": "node", "id": 3808553984, "lat": 12.9730752, "lon": 77.6155935, "tags": {"amenity": "bank", "brand": "HDFC Bank", "brand:wikidata": "Q631047", "brand:wikipedia": "en:HDFC Bank", "level": "0", "name": "HDFC Bank", "name:kn": "\u0c8e\u0c9a\u0ccd \u0ca1\u0cbf \u0c8e\u0cab\u0ccd \u0cb8\u0cbf", "short_name": "HDFC", "website": "https://www.hdfcbank.com"}}, {"type": "node", "id": 3808565777, "lat": 12.9731241, "lon": 77.6136623, "tags": {"amenity": "bank", "brand": "Deutsche Bank", "brand:wikidata": "Q66048", "level": "0;2-3", "name": "Deutsche Bank"}}, {"type": "node", "id": 3808565778, "lat": 12.9732234, "lon": 77.6137669, "tags": {"amenity": "bank", "brand": "Standard Chartered", "brand:wikidata": "Q548278", "level": "0;6", "name": "Standard Chartered", "name:kn": "\u0cb8\u0ccd\u0c9f\u0cbe\u0c82\u0ca1\u0cb0\u0ccd\u0ca1\u0ccd \u0c9a\u0cbe\u0cb0\u0ccd\u0c9f\u0cb0\u0ccd\u0ca1\u0ccd"}}, {"type": "node", "id": 3808573610, "lat": 12.9733488, "lon": 77.6136783, "tags": {"amenity": "bank", "brand": "Kotak Mahindra Bank", "brand:wikidata": "Q2040404", "brand:wikipedia": "en:Kotak Mahindra Bank", "level": "5", "name": "Kotak Mahindra Bank", "name:en": "Kotak Mahindra Bank", "name:kn": "\u0c95\u0ccb\u0c9f\u0c95\u0ccd \u0cae\u0cb9\u0cbf\u0c82\u0ca6\u0ccd\u0cb0 \u0cac\u0ccd\u0caf\u0cbe\u0c82\u0c95\u0ccd", "website": "http://www.kotak.com"}}, {"type": "node", "id": 3808614236, "lat": 12.9728784, "lon": 77.6138634, "tags": {"amenity": "bank", "brand": "Standard Chartered", "brand:wikidata": "Q548278", "level": "0,2,3", "name": "Standard Chartered", "name:kn": "\u0cb8\u0ccd\u0c9f\u0cbe\u0c82\u0ca1\u0cb0\u0ccd\u0ca1\u0ccd \u0c9a\u0cbe\u0cb0\u0ccd\u0c9f\u0cb0\u0ccd\u0ca1\u0ccd"}}, {"type": "node", "id": 3808615938, "lat": 12.972813, "lon": 77.6138715, "tags": {"amenity": "bank", "branch": "Zonal Office", "brand": "Punjab National Bank", "brand:wikidata": "Q2743499", "level": "1", "name": "Punjab National Bank", "name:kn": "\u0caa\u0c82\u0c9c\u0cbe\u0cac \u0cb0\u0cbe\u0cb7\u0ccd\u0c9f\u0ccd\u0cb0\u0cc0\u0caf \u0cac\u0ccd\u0caf\u0cbe\u0c82\u0c95\u0ccd"}}, {"type": "node", "id": 3808617598, "lat": 12.972881, "lon": 77.6139332, "tags": {"amenity": "bank", "branch": "Circle Office", "brand": "Indian Bank", "brand:wikidata": "Q2003789", "level": "4", "name": "Indian Bank"}}, {"type": "node", "id": 3820249093, "lat": 12.9735781, "lon": 77.6135363, "tags": {"amenity": "bank", "brand": "IndusInd Bank", "brand:wikidata": "Q2040323", "brand:wikipedia": "en:IndusInd Bank", "level": "0", "name": "IndusInd Bank", "name:en": "IndusInd Bank", "name:kn": "\u0c87\u0c82\u0ca1\u0cb8\u0ccd\u0c87\u0c82\u0ca1\u0ccd \u0cac\u0ccd\u0caf\u0cbe\u0c82\u0c95\u0ccd", "website": "https://www.indusind.com"}}, {"type": "node", "id": 3820249100, "lat": 12.973633, "lon": 77.6131796, "tags": {"amenity": "bank", "brand": "IndusInd Bank", "brand:wikidata": "Q2040323", "brand:wikipedia": "en:IndusInd Bank", "level": "5", "name": "IndusInd Bank", "name:en": "IndusInd Bank", "name:kn": "\u0c87\u0c82\u0ca1\u0cb8\u0ccd\u0c87\u0c82\u0ca1\u0ccd", "website": "https://www.indusind.com"}}, {"type": "node", "id": 3820249102, "lat": 12.9736382, "lon": 77.6131447, "tags": {"amenity": "bank", "brand": "Punjab National Bank", "brand:wikidata": "Q2743499", "level": "2", "name": "Punjab National Bank", "name:en": "Punjab National Bank", "name:kn": "\u0caa\u0c82\u0c9c\u0cbe\u0cac \u0cb0\u0cbe\u0cb7\u0ccd\u0c9f\u0ccd\u0cb0\u0cc0\u0caf \u0cac\u0ccd\u0caf\u0cbe\u0c82\u0c95\u0ccd", "short_name": "PNB", "website": "https://www.pnbindia.in"}}, {"type": "node", "id": 3844308319, "lat": 12.9730644, "lon": 77.6155317, "tags": {"amenity": "bank", "brand": "HDFC Bank", "brand:wikidata": "Q631047", "level": "-1", "name": "HDFC Bank", "short_name": "HDFC"}}, {"type": "node", "id": 3846361461, "lat": 12.9751927, "lon": 77.614784, "tags": {"amenity": "bank", "brand": "Allahabad Bank", "brand:wikidata": "Q2018840", "brand:wikipedia": "en:Allahabad Bank", "level": "1", "name": "Allahabad Bank", "name:en": "Allahabad Bank", "name:kn": "\u0c85\u0cb2\u0cb9\u0cbe\u0cac\u0cbe\u0ca6\u0ccd \u0cac\u0ccd\u0caf\u0cbe\u0c82\u0c95", "website": "https://www.allahabadbank.in"}}, {"type": "node", "id": 3846361464, "lat": 12.9751587, "lon": 77.6148698, "tags": {"amenity": "bank", "brand": "Syndicate Bank", "brand:wikidata": "Q2004088", "level": "1", "name": "Syndicate Bank", "name:kn": "\u0cb8\u0cbf\u0c82\u0ca1\u0cbf\u0c95\u0cc7\u0c9f\u0ccd \u0cac\u0ccd\u0caf\u0cbe\u0c82\u0c95\u0ccd"}}, {"type": "node", "id": 3862107357, "lat": 12.9677866, "lon": 77.6002508, "tags": {"amenity": "bank", "atm": "yes", "brand": "ICICI Bank", "brand:wikidata": "Q1653258", "name": "ICICI Bank", "short_name": "ICICI"}}, {"type": "node", "id": 3862569635, "lat": 12.9668801, "lon": 77.599278, "tags": {"amenity": "bank", "atm": "yes", "brand": "Indian Overseas Bank", "brand:wikidata": "Q2003611", "brand:wikipedia": "en:Indian Overseas Bank", "level": "0", "name": "Indian Overseas Bank", "name:en": "Indian Overseas Bank", "name:kn": "\u0c90 \u0c93 \u0cac\u0cbf", "short_name": "IOB", "website": "https://www.iob.in"}}, {"type": "node", "id": 4087938731, "lat": 12.9985096, "lon": 77.5700901, "tags": {"amenity": "bank", "brand": "State Bank of India", "brand:wikidata": "Q1340361", "brand:wikipedia": "en:State Bank of India", "name": "State Bank of India", "name:kn": "\u0cad\u0cbe\u0cb0\u0ca4\u0cc0\u0caf \u0cb8\u0ccd\u0c9f\u0cc7\u0c9f\u0ccd \u0cac\u0ccd\u0caf\u0cbe\u0c82\u0c95\u0ccd", "short_name": "SBI", "website": "https://www.sbi.co.in"}}, {"type": "node", "id": 4294824407, "lat": 12.9812314, "lon": 77.6017194, "tags": {"amenity": "bank", "atm": "yes", "branch": "(E  Vijaya Bank)", "brand": "Bank of Baroda", "brand:wikidata": "Q2003797", "brand:wikipedia": "en:Bank of Baroda", "name": "Bank of Baroda", "name:kn": "\u0cb5\u0cbf\u0c9c\u0caf \u0cac\u0ccd\u0caf\u0cbe\u0c82\u0c95\u0cc1"}}, {"type": "node", "id": 4299309955, "lat": 12.9825997, "lon": 77.6028514, "tags": {"amenity": "bank", "name": "Amanath Co-op Bank Ltd"}}, {"type": "node", "id": 4307608188, "lat": 12.9728321, "lon": 77.6111241, "tags": {"amenity": "bank", "atm": "yes", "brand": "ICICI Bank", "brand:wikidata": "Q1653258", "name": "ICICI Bank", "name:en": "ICICI Bank", "name:kn": "\u0c90\u0cb8\u0cbf\u0c90\u0cb8\u0cbf\u0c90 \u0cac\u0ccd\u0caf\u0cbe\u0c82\u0c95\u0cc1", "short_name": "ICICI", "website": "https://www.icicibank.com"}}, {"type": "node", "id": 4307625972, "lat": 12.9655392, "lon": 77.6028344, "tags": {"amenity": "bank", "brand": "State Bank of India", "brand:wikidata": "Q1340361", "brand:wikipedia": "en:State Bank of India", "name": "State Bank of India", "name:kn": "\u0cad\u0cbe\u0cb0\u0ca4\u0cc0\u0caf \u0cb8\u0ccd\u0c9f\u0cc7\u0c9f\u0ccd \u0cac\u0ccd\u0caf\u0cbe\u0c82\u0c95\u0ccd", "short_name": "SBI", "website": "https://www.sbi.co.in"}}, {"type": "node", "id": 4307663670, "lat": 12.965985, "lon": 77.6043811, "tags": {"amenity": "bank", "brand": "State Bank of India", "brand:wikidata": "Q1340361", "brand:wikipedia": "en:State Bank of India", "name": "State Bank of India", "name:kn": "\u0cad\u0cbe\u0cb0\u0ca4\u0cc0\u0caf \u0cb8\u0ccd\u0c9f\u0cc7\u0c9f\u0ccd \u0cac\u0ccd\u0caf\u0cbe\u0c82\u0c95\u0ccd", "short_name": "SBI"}}, {"type": "node", "id": 4308197700, "lat": 12.9802643, "lon": 77.6022173, "tags": {"amenity": "bank", "brand": "Indian Overseas Bank", "brand:wikidata": "Q2003611", "brand:wikipedia": "en:Indian Overseas Bank", "level": "0", "name": "Indian Overseas Bank", "name:en": "Indian Overseas Bank", "name:kn": "\u0c90 \u0c93 \u0cac\u0cbf", "short_name": "IOB", "website": "https://www.iob.in"}}, {"type": "node", "id": 4308219751, "lat": 12.9740049, "lon": 77.5794628, "tags": {"amenity": "bank", "atm": "yes", "brand": "CSB Bank", "brand:wikidata": "Q5053244", "check_date": "2023-02-11", "name": "CSB Bank", "official_name": "Catholic Syrian Bank", "operator": "CSB"}}, {"type": "node", "id": 4308220071, "lat": 12.9740685, "lon": 77.5792924, "tags": {"amenity": "bank", "atm": "yes", "brand": "Bank of Baroda", "brand:wikidata": "Q2003797", "name": "Bank of Baroda", "name:kn": "\u0cb5\u0cbf\u0c9c\u0caf \u0cac\u0ccd\u0caf\u0cbe\u0c82\u0c95\u0cc1"}}, {"type": "node", "id": 4308225753, "lat": 12.9824437, "lon": 77.6021511, "tags": {"amenity": "bank", "name": "Karnataka State Co-operative Apex Bank Ltd"}}, {"type": "node", "id": 4314374492, "lat": 12.9800143, "lon": 77.6023523, "tags": {"amenity": "bank", "brand": "Indian Overseas Bank", "brand:wikidata": "Q2003611", "brand:wikipedia": "en:Indian Overseas Bank", "name": "Indian Overseas Bank", "name:en": "Indian Overseas Bank", "name:kn": "\u0c90 \u0c93 \u0cac\u0cbf", "short_name": "IOB", "website": "https://www.iob.in"}}, {"type": "node", "id": 4368918389, "lat": 12.9729745, "lon": 77.5808399, "tags": {"amenity": "bank", "brand": "Corporation Bank", "brand:wikidata": "Q2003387", "name": "Corporation Bank", "name:kn": "\u0c95\u0cbe\u0cb0\u0ccd\u0caa\u0cb0\u0cc7\u0cb7\u0ca8\u0ccd \u0cac\u0ccd\u0caf\u0cbe\u0c82\u0c95\u0ccd"}}, {"type": "node", "id": 4371078994, "lat": 13.0018629, "lon": 77.5988299, "tags": {"amenity": "bank", "atm": "yes", "brand": "HDFC Bank", "brand:wikidata": "Q631047", "brand:wikipedia": "en:HDFC Bank", "name": "HDFC Bank", "name:kn": "\u0c8e\u0c9a\u0ccd \u0ca1\u0cbf \u0c8e\u0cab\u0ccd \u0cb8\u0cbf", "short_name": "HDFC", "website": "https://www.hdfcbank.com"}}, {"type": "node", "id": 4446527432, "lat": 12.9917126, "lon": 77.5708843, "tags": {"addr:city": "Bengaluru", "addr:housenumber": "LG-34", "addr:postcode": "560003", "addr:street": "Sampige Road", "air_conditioning": "yes", "amenity": "bank", "brand": "State Bank of India", "brand:wikidata": "Q1340361", "brand:wikipedia": "en:State Bank of India", "name": "State Bank of India", "name:kn": "\u0cad\u0cbe\u0cb0\u0ca4\u0cc0\u0caf \u0cb8\u0ccd\u0c9f\u0cc7\u0c9f\u0ccd \u0cac\u0ccd\u0caf\u0cbe\u0c82\u0c95\u0ccd", "opening_hours": "10:00-20:00", "phone": "+919901998324", "short_name": "SBI", "website": "https://www.sbi.co.in"}}, {"type": "node", "id": 4607623009, "lat": 12.987281, "lon": 77.5949854, "tags": {"amenity": "bank", "brand": "Yes Bank", "brand:wikidata": "Q2040394", "brand:wikipedia": "en:Yes Bank", "name": "Yes Bank", "name:en": "YES Bank", "website": "https://www.yesbank.in"}}, {"type": "node", "id": 4655054151, "lat": 12.9733363, "lon": 77.5799372, "tags": {"addr:city": "Bangalore", "addr:housenumber": "2", "addr:postcode": "560009", "addr:street": "Kempegowda Road", "amenity": "bank", "atm": "yes", "brand": "Allahabad Bank", "brand:wikidata": "Q2018840", "brand:wikipedia": "en:Allahabad Bank", "fax": "080-22253402", "name": "Allahabad Bank", "name:en": "Allahabad Bank", "name:kn": "\u0c85\u0cb2\u0ccd\u0cb2\u0cb9\u0cbe\u0cac\u0cbe\u0ca6\u0ccd \u0cac\u0ccd\u0caf\u0cbe\u0c82\u0c95\u0ccd", "phone": "080-22262064", "phone_1": "080-22261599", "website": "https://www.allahabadbank.in"}}, {"type": "node", "id": 4655364516, "lat": 12.9848107, "lon": 77.601649, "tags": {"addr:city": "Bangalore", "addr:housenumber": "180", "addr:postcode": "560051", "addr:street": "Shivaji Road", "amenity": "bank", "atm": "yes", "brand": "Allahabad Bank", "brand:wikidata": "Q2018840", "brand:wikipedia": "en:Allahabad Bank", "name": "Allahabad Bank", "name:en": "Allahabad Bank", "name:kn": "\u0c85\u0cb2\u0cb9\u0cbe\u0cac\u0cbe\u0ca6\u0ccd \u0cac\u0ccd\u0caf\u0cbe\u0c82\u0c95", "phone": "080-22865251", "website": "https://www.allahabadbank.in"}}, {"type": "node", "id": 4843116021, "lat": 12.9578168, "lon": 77.593057, "tags": {"amenity": "bank", "brand": "Bank of Baroda", "brand:wikidata": "Q2003797", "brand:wikipedia": "en:Bank of Baroda", "name": "Bank of Baroda", "name:en": "Bank of Baroda", "name:kn": "\u0cac\u0ccd\u0caf\u0cbe\u0c82\u0c95\u0ccd \u0c86\u0cab\u0ccd \u0cac\u0cb0\u0ccb\u0ca1", "short_name": "BoB", "website": "http://www.bankofbaroda.com"}}, {"type": "node", "id": 4843123822, "lat": 12.9584406, "lon": 77.593372, "tags": {"amenity": "bank", "brand": "Union Bank of India", "brand:wikidata": "Q2004078", "brand:wikipedia": "en:Union Bank of India", "name": "Union Bank of India", "name:en": "Union Bank of India", "name:kn": "\u0caf\u0cc2\u0ca8\u0cbf\u0caf\u0ca8\u0ccd \u0cac\u0ccd\u0caf\u0cbe\u0c82\u0c95\u0ccd", "website": "https://www.unionbankofindia.co.in/"}}, {"type": "node", "id": 4843126321, "lat": 12.9604187, "lon": 77.5941492, "tags": {"amenity": "bank", "brand": "Axis Bank", "brand:wikidata": "Q2003549", "brand:wikipedia": "en:Axis Bank", "name": "Axis Bank", "name:en": "Axis Bank", "name:kn": "\u0c86\u0c95\u0ccd\u0cb8\u0cbf\u0cb8\u0ccd \u0cac\u0ccd\u0caf\u0cbe\u0c82\u0c95\u0ccd", "website": "https://www.axisbank.com", "wheelchair": "no"}}, {"type": "node", "id": 4844863360, "lat": 12.9819362, "lon": 77.6093274, "tags": {"amenity": "bank", "brand": "Union Bank of India", "brand:wikidata": "Q2004078", "brand:wikipedia": "en:Union Bank of India", "name": "Union Bank of India", "name:en": "Union Bank of India", "name:kn": "\u0caf\u0cc2\u0ca8\u0cbf\u0caf\u0ca8\u0ccd \u0cac\u0ccd\u0caf\u0cbe\u0c82\u0c95\u0ccd", "short_name": "UBI", "website": "https://www.unionbankofindia.co.in/"}}, {"type": "node", "id": 4847287229, "lat": 12.9707944, "lon": 77.6007269, "tags": {"amenity": "bank", "branch": "Saint Mark's Road", "brand": "Federal Bank", "brand:wikidata": "Q2044983", "brand:wikipedia": "en:Federal Bank", "name": "Federal Bank", "name:en": "Federal Bank", "name:kn": "\u0cab\u0cc6\u0ca1\u0cc6\u0cb0\u0cb2\u0ccd \u0cac\u0ccd\u0caf\u0cbe\u0c82\u0c95\u0ccd", "website": "https://www.federalbank.co.in", "wheelchair": "limited"}}, {"type": "node", "id": 4847294839, "lat": 12.9656547, "lon": 77.6018918, "tags": {"amenity": "bank", "atm": "yes", "brand": "Axis Bank", "brand:wikidata": "Q2003549", "brand:wikipedia": "en:Axis Bank", "name": "Axis Bank", "name:en": "Axis Bank", "name:kn": "\u0c86\u0c95\u0ccd\u0cb8\u0cbf\u0cb8\u0ccd \u0cac\u0ccd\u0caf\u0cbe\u0c82\u0c95\u0ccd", "website": "https://www.axisbank.com"}}, {"type": "node", "id": 4847294842, "lat": 12.9580518, "lon": 77.5928392, "tags": {"amenity": "bank", "brand": "HDFC Bank", "brand:wikidata": "Q631047", "name": "HDFC Bank", "name:en": "HDFC Bank", "name:kn": "\u0c8e\u0c9a\u0ccd \u0ca1\u0cbf \u0c8e\u0cab\u0ccd \u0cb8\u0cbf", "short_name": "HDFC"}}, {"type": "node", "id": 4847297822, "lat": 12.9683717, "lon": 77.6016294, "tags": {"alt_name": "RBL Bank Limited", "amenity": "bank", "brand": "RBL Bank", "brand:wikidata": "Q13120398", "brand:wikipedia": "en:RBL Bank", "name": "RBL Bank", "name:en": "RBL Bank", "old_name": "Ratnakar Bank Limited", "short_name": "RBL", "website": "https://www.rblbank.com"}}, {"type": "node", "id": 4849108026, "lat": 12.9555428, "lon": 77.5802105, "tags": {"amenity": "bank", "brand": "Axis Bank", "brand:wikidata": "Q2003549", "brand:wikipedia": "en:Axis Bank", "name": "Axis Bank", "name:en": "Axis Bank", "name:kn": "\u0c86\u0c95\u0ccd\u0cb8\u0cbf\u0cb8\u0ccd \u0cac\u0ccd\u0caf\u0cbe\u0c82\u0c95\u0ccd", "website": "https://www.axisbank.com"}}, {"type": "node", "id": 4849618966, "lat": 12.9851311, "lon": 77.5967445, "tags": {"amenity": "bank", "brand": "Axis Bank", "brand:wikidata": "Q2003549", "brand:wikipedia": "en:Axis Bank", "name": "Axis Bank", "name:en": "Axis Bank", "name:kn": "\u0c86\u0c95\u0ccd\u0cb8\u0cbf\u0cb8\u0ccd \u0cac\u0ccd\u0caf\u0cbe\u0c82\u0c95\u0ccd", "website": "https://www.axisbank.com"}}, {"type": "node", "id": 4849618969, "lat": 12.9864576, "lon": 77.5956391, "tags": {"amenity": "bank", "brand": "State Bank of India", "brand:wikidata": "Q1340361", "brand:wikipedia": "en:State Bank of India", "name": "State Bank of India", "name:kn": "\u0cad\u0cbe\u0cb0\u0ca4\u0cc0\u0caf \u0cb8\u0ccd\u0c9f\u0cc7\u0c9f\u0ccd \u0cac\u0ccd\u0caf\u0cbe\u0c82\u0c95\u0ccd", "short_name": "SBI"}}, {"type": "node", "id": 4849618970, "lat": 12.9880543, "lon": 77.5940452, "tags": {"amenity": "bank", "name": "Vijaya Bank", "name:kn": "\u0cb5\u0cbf\u0c9c\u0caf \u0cac\u0ccd\u0caf\u0cbe\u0c82\u0c95\u0cc1"}}, {"type": "node", "id": 5061380659, "lat": 12.9966687, "lon": 77.5728097, "tags": {"amenity": "bank", "brand": "Indian Bank", "brand:wikidata": "Q2003789", "brand:wikipedia": "en:Indian Bank", "name": "Indian Bank", "name:kn": "\u0c87\u0c82\u0ca1\u0cbf\u0caf\u0ca8\u0ccd \u0cac\u0ccd\u0caf\u0cbe\u0c82\u0c95\u0ccd"}}, {"type": "node", "id": 5061395362, "lat": 12.9659404, "lon": 77.6144089, "tags": {"amenity": "bank", "atm": "yes", "brand": "Axis Bank", "brand:wikidata": "Q2003549", "name": "Axis Bank", "name:kn": "\u0c86\u0c95\u0ccd\u0cb8\u0cbf\u0cb8\u0ccd \u0cac\u0ccd\u0caf\u0cbe\u0c82\u0c95\u0ccd"}}, {"type": "node", "id": 5174980933, "lat": 12.997125, "lon": 77.5868347, "tags": {"amenity": "bank", "brand": "HDFC Bank", "brand:wikidata": "Q631047", "check_date": "2024-06-15", "name": "HDFC Bank", "name:kn": "\u0c8e\u0c9a\u0ccd \u0ca1\u0cbf \u0c8e\u0cab\u0ccd \u0cb8\u0cbf", "short_name": "HDFC"}}, {"type": "node", "id": 5175027886, "lat": 12.9966897, "lon": 77.5686323, "tags": {"amenity": "bank", "name": "SVC Co-Operative Bank Ltd."}}, {"type": "node", "id": 5227399597, "lat": 12.9967846, "lon": 77.5626479, "tags": {"amenity": "bank", "atm": "yes", "brand": "Karnataka Bank", "brand:wikidata": "Q2042632", "name": "Karnataka Bank", "name:kn": "\u0c95\u0cb0\u0ccd\u0ca8\u0cbe\u0c9f\u0c95 \u0cac\u0ccd\u0caf\u0cbe\u0c82\u0c95\u0ccd"}}, {"type": "node", "id": 5229456534, "lat": 12.9966535, "lon": 77.5702704, "tags": {"amenity": "bank", "brand": "Syndicate Bank", "brand:wikidata": "Q2004088", "brand:wikipedia": "en:Syndicate Bank", "name": "Syndicate Bank", "name:kn": "\u0cb8\u0cbf\u0c82\u0ca1\u0cbf\u0c95\u0cc7\u0c9f\u0ccd \u0cac\u0ccd\u0caf\u0cbe\u0c82\u0c95\u0ccd"}}, {"type": "node", "id": 5229456535, "lat": 12.9966843, "lon": 77.57085, "tags": {"amenity": "bank", "brand": "Canara Bank", "brand:en": "Canara Bank", "brand:hi": "\u0915\u0947\u0928\u0930\u093e \u092c\u0948\u0902\u0915", "brand:kn": "\u0c95\u0cc6\u0ca8\u0cb0\u0cbe \u0cac\u0ccd\u0caf\u0cbe\u0c82\u0c95\u0ccd", "brand:pa": "\u0a15\u0a47\u0a28\u0a30\u0a3e \u0a2c\u0a48\u0a02\u0a15", "brand:pnb": "\u06a9\u06cc\u0646\u0631\u0627 \u0628\u06cc\u0646\u06a9", "brand:ur": "\u06a9\u06cc\u0646\u0631\u0627 \u0628\u06cc\u0646\u06a9", "brand:wikidata": "Q2003777", "brand:wikipedia": "en:Canara Bank", "brand:wikipedia:pa": "\u0a15\u0a47\u0a28\u0a30\u0a3e \u0a2c\u0a48\u0a02\u0a15", "name": "Canara Bank", "name:en": "Canara Bank", "name:hi": "\u0915\u0947\u0928\u0930\u093e \u092c\u0948\u0902\u0915", "name:kn": "\u0c95\u0cc6\u0ca8\u0cb0\u0cbe \u0cac\u0ccd\u0caf\u0cbe\u0c82\u0c95\u0ccd", "name:pa": "\u0a15\u0a47\u0a28\u0a30\u0a3e \u0a2c\u0a48\u0a02\u0a15", "name:pnb": "\u06a9\u06cc\u0646\u0631\u0627 \u0628\u06cc\u0646\u06a9", "name:ur": "\u06a9\u06cc\u0646\u0631\u0627 \u0628\u06cc\u0646\u06a9"}}, {"type": "node", "id": 5234745850, "lat": 12.9501743, "lon": 77.5798156, "tags": {"addr:housenumber": "106", "amenity": "bank", "atm": "yes", "name": "Sree Subramanya Co-Operative Bank", "short_name": "Subco Bank"}}, {"type": "node", "id": 5273606323, "lat": 12.9956522, "lon": 77.6015774, "tags": {"amenity": "bank", "brand": "Canara Bank", "brand:en": "Canara Bank", "brand:hi": "\u0915\u0947\u0928\u0930\u093e \u092c\u0948\u0902\u0915", "brand:kn": "\u0c95\u0cc6\u0ca8\u0cb0\u0cbe \u0cac\u0ccd\u0caf\u0cbe\u0c82\u0c95\u0ccd", "brand:pa": "\u0a15\u0a47\u0a28\u0a30\u0a3e \u0a2c\u0a48\u0a02\u0a15", "brand:pnb": "\u06a9\u06cc\u0646\u0631\u0627 \u0628\u06cc\u0646\u06a9", "brand:ur": "\u06a9\u06cc\u0646\u0631\u0627 \u0628\u06cc\u0646\u06a9", "brand:wikidata": "Q2003777", "brand:wikipedia": "en:Canara Bank", "brand:wikipedia:pa": "\u0a15\u0a47\u0a28\u0a30\u0a3e \u0a2c\u0a48\u0a02\u0a15", "name": "Canara Bank", "name:en": "Canara Bank", "name:hi": "\u0915\u0947\u0928\u0930\u093e \u092c\u0948\u0902\u0915", "name:kn": "\u0c95\u0cc6\u0ca8\u0cb0\u0cbe \u0cac\u0ccd\u0caf\u0cbe\u0c82\u0c95\u0ccd", "name:pa": "\u0a15\u0a47\u0a28\u0a30\u0a3e \u0a2c\u0a48\u0a02\u0a15", "name:pnb": "\u06a9\u06cc\u0646\u0631\u0627 \u0628\u06cc\u0646\u06a9", "name:ur": "\u06a9\u06cc\u0646\u0631\u0627 \u0628\u06cc\u0646\u06a9"}}, {"type": "node", "id": 5292783222, "lat": 12.9895036, "lon": 77.5721251, "tags": {"amenity": "bank", "atm": "yes", "brand": "State Bank of India", "brand:wikidata": "Q1340361", "name": "State Bank of India", "name:kn": "\u0cad\u0cbe\u0cb0\u0ca4\u0cc0\u0caf \u0cb8\u0ccd\u0c9f\u0cc7\u0c9f\u0ccd \u0cac\u0ccd\u0caf\u0cbe\u0c82\u0c95\u0ccd", "operator": "State Bank of India", "short_name": "SBI"}}, {"type": "node", "id": 5299121808, "lat": 12.9771788, "lon": 77.576166}, {"type": "node", "id": 5306746603, "lat": 12.9506391, "lon": 77.5799219, "tags": {"addr:housenumber": "112", "amenity": "bank", "atm": "no", "level": "1", "name": "Koteshwara Co-Op Bank"}}, {"type": "node", "id": 5306751768, "lat": 12.952479, "lon": 77.5774381, "tags": {"amenity": "bank", "brand": "Kotak Mahindra Bank", "brand:wikidata": "Q2040404", "level": "1", "name": "Kotak Mahindra Bank", "name:kn": "\u0c95\u0ccb\u0c9f\u0c95\u0ccd \u0cae\u0cb9\u0cbf\u0c82\u0ca6\u0ccd\u0cb0 \u0cac\u0ccd\u0caf\u0cbe\u0c82\u0c95\u0ccd"}}, {"type": "node", "id": 5568430379, "lat": 12.9723244, "lon": 77.6019189}, {"type": "node", "id": 5765878304, "lat": 12.9649875, "lon": 77.5996327, "tags": {"amenity": "bank", "atm": "yes", "brand": "Punjab National Bank", "brand:wikidata": "Q2743499", "name": "Punjab National Bank"}}, {"type": "node", "id": 5922608012, "lat": 12.9740325, "lon": 77.5755128, "tags": {"amenity": "bank", "atm": "yes", "brand": "Kotak Mahindra Bank", "brand:wikidata": "Q2040404", "name": "Kotak Mahindra Bank", "name:kn": "\u0c95\u0ccb\u0c9f\u0c95\u0ccd \u0cae\u0cb9\u0cbf\u0c82\u0ca6\u0ccd\u0cb0 \u0cac\u0ccd\u0caf\u0cbe\u0c82\u0c95\u0ccd"}}, {"type": "node", "id": 5922608024, "lat": 12.9750489, "lon": 77.5761449, "tags": {"amenity": "bank", "atm": "yes", "brand": "Central Bank of India", "brand:wikidata": "Q2007090", "name": "Central Bank of India"}}, {"type": "node", "id": 5964506929, "lat": 12.959495, "lon": 77.5933412, "tags": {"amenity": "bank", "brand": "Karnataka Bank", "brand:wikidata": "Q2042632", "name": "Karnataka Bank", "name:kn": "\u0c95\u0cb0\u0ccd\u0ca8\u0cbe\u0c9f\u0c95 \u0cac\u0ccd\u0caf\u0cbe\u0c82\u0c95\u0ccd"}}, {"type": "node", "id": 5983455178, "lat": 12.9631282, "lon": 77.5891892, "tags": {"amenity": "bank", "check_date": "2024-03-02", "name": "J&K Bank"}}, {"type": "node", "id": 6419044988, "lat": 12.9692985, "lon": 77.5793482, "tags": {"addr:street": "Avenue Road", "amenity": "bank", "brand": "Karur Vysya Bank", "brand:wikidata": "Q6373724", "name": "Karur Vysya Bank", "name:kn": "\u0c95\u0cb0\u0cc2\u0cb0\u0cc1 \u0cb5\u0cc8\u0cb6\u0ccd\u0caf \u0cac\u0ccd\u0caf\u0cbe\u0c82\u0c95\u0ccd"}}, {"type": "node", "id": 6419052686, "lat": 12.9692389, "lon": 77.5795139, "tags": {"amenity": "bank", "brand": "Canara Bank", "brand:en": "Canara Bank", "brand:hi": "\u0915\u0947\u0928\u0930\u093e \u092c\u0948\u0902\u0915", "brand:kn": "\u0c95\u0cc6\u0ca8\u0cb0\u0cbe \u0cac\u0ccd\u0caf\u0cbe\u0c82\u0c95\u0ccd", "brand:pa": "\u0a15\u0a47\u0a28\u0a30\u0a3e \u0a2c\u0a48\u0a02\u0a15", "brand:pnb": "\u06a9\u06cc\u0646\u0631\u0627 \u0628\u06cc\u0646\u06a9", "brand:ur": "\u06a9\u06cc\u0646\u0631\u0627 \u0628\u06cc\u0646\u06a9", "brand:wikidata": "Q2003777", "brand:wikipedia": "en:Canara Bank", "brand:wikipedia:pa": "\u0a15\u0a47\u0a28\u0a30\u0a3e \u0a2c\u0a48\u0a02\u0a15", "name": "Canara Bank", "name:en": "Canara Bank", "name:hi": "\u0915\u0947\u0928\u0930\u093e \u092c\u0948\u0902\u0915", "name:kn": "\u0c95\u0cc6\u0ca8\u0cb0\u0cbe \u0cac\u0ccd\u0caf\u0cbe\u0c82\u0c95\u0ccd", "name:pa": "\u0a15\u0a47\u0a28\u0a30\u0a3e \u0a2c\u0a48\u0a02\u0a15", "name:pnb": "\u06a9\u06cc\u0646\u0631\u0627 \u0628\u06cc\u0646\u06a9", "name:ur": "\u06a9\u06cc\u0646\u0631\u0627 \u0628\u06cc\u0646\u06a9"}}, {"type": "node", "id": 6419055686, "lat": 12.9697564, "lon": 77.5797471, "tags": {"addr:street": "Avenue Road", "amenity": "bank", "brand": "Indian Bank", "brand:wikidata": "Q2003789", "name": "Indian Bank", "name:kn": "\u0c87\u0c82\u0ca1\u0cbf\u0caf\u0ca8\u0ccd \u0cac\u0ccd\u0caf\u0cbe\u0c82\u0c95\u0ccd"}}, {"type": "node", "id": 6584009912, "lat": 12.9753831, "lon": 77.6037573, "tags": {"amenity": "bank", "atm": "yes", "brand": "State Bank of India", "brand:wikidata": "Q1340361", "name": "State Bank of India", "name:kn": "\u0cad\u0cbe\u0cb0\u0ca4\u0cc0\u0caf \u0cb8\u0ccd\u0c9f\u0cc7\u0c9f\u0ccd \u0cac\u0ccd\u0caf\u0cbe\u0c82\u0c95\u0ccd", "short_name": "SBI"}}, {"type": "node", "id": 6584009950, "lat": 12.9737704, "lon": 77.6076552, "tags": {"amenity": "bank", "atm": "yes", "brand": "United Bank of India", "brand:wikidata": "Q2003237", "name": "United Bank of India"}}, {"type": "node", "id": 6584009973, "lat": 12.9713517, "lon": 77.6065451, "tags": {"addr:city": "Bangalore", "addr:floor": "G", "addr:hamlet": "Shanthala Nagar", "addr:housenumber": "A020", "addr:postcode": "560 025", "addr:state": "KA", "addr:suburb": "Ashok Nagar", "amenity": "bank", "atm": "yes", "branch": "Brigade Road", "brand": "CSB Bank", "brand:wikidata": "Q5053244", "level": "0", "name": "CSB Bank", "official_name": "Catholic Syrian Bank", "opening_hours": "Mo-Sa 09:30-16:00; PH,Sa[2,4] closed", "operator": "CSB Bank", "operator:wikidata": "Q5053244"}}, {"type": "node", "id": 6681215515, "lat": 12.9742181, "lon": 77.5793459, "tags": {"amenity": "bank", "atm": "yes", "brand": "Syndicate Bank", "brand:wikidata": "Q2004088", "layer": "2", "name": "Syndicate Bank", "name:kn": "\u0cb8\u0cbf\u0c82\u0ca1\u0cbf\u0c95\u0cc7\u0c9f\u0ccd \u0cac\u0ccd\u0caf\u0cbe\u0c82\u0c95\u0ccd"}}, {"type": "node", "id": 6681215516, "lat": 12.9734339, "lon": 77.5806454, "tags": {"amenity": "bank", "atm": "yes", "brand": "United Bank of India", "brand:wikidata": "Q2003237", "name": "United Bank of India"}}, {"type": "node", "id": 6681215531, "lat": 12.9661166, "lon": 77.6051702, "tags": {"amenity": "bank", "atm": "yes", "brand": "Bank of India", "brand:wikidata": "Q2004439", "name": "Bank of India"}}, {"type": "node", "id": 7043991985, "lat": 12.962044, "lon": 77.5933871, "tags": {"amenity": "bank", "brand": "IDBI Bank", "brand:wikidata": "Q3633485", "name": "IDBI Bank", "name:kn": "\u0c90\u0ca1\u0cbf\u0cac\u0cbf\u0c90 \u0cac\u0ccd\u0caf\u0cbe\u0c82\u0c95\u0ccd", "short_name": "IDBI"}}, {"type": "node", "id": 7087593341, "lat": 12.9975602, "lon": 77.5837594, "tags": {"amenity": "bank", "atm": "yes", "brand": "Corporation Bank", "brand:wikidata": "Q2003387", "name": "Corporation Bank", "name:kn": "\u0c95\u0cbe\u0cb0\u0ccd\u0caa\u0cb0\u0cc7\u0cb7\u0ca8\u0ccd \u0cac\u0ccd\u0caf\u0cbe\u0c82\u0c95\u0ccd", "operator": "Corporation Bank"}}, {"type": "node", "id": 7087593363, "lat": 12.9942345, "lon": 77.6078604, "tags": {"amenity": "bank", "atm": "yes", "brand": "ICICI Bank", "brand:wikidata": "Q1653258", "name": "ICICI Bank", "short_name": "ICICI", "wheelchair": "no"}}, {"type": "node", "id": 7176651863, "lat": 12.9961267, "lon": 77.5644824, "tags": {"amenity": "bank", "atm": "yes", "brand": "Canara Bank", "brand:en": "Canara Bank", "brand:hi": "\u0915\u0947\u0928\u0930\u093e \u092c\u0948\u0902\u0915", "brand:kn": "\u0c95\u0cc6\u0ca8\u0cb0\u0cbe \u0cac\u0ccd\u0caf\u0cbe\u0c82\u0c95\u0ccd", "brand:pa": "\u0a15\u0a47\u0a28\u0a30\u0a3e \u0a2c\u0a48\u0a02\u0a15", "brand:pnb": "\u06a9\u06cc\u0646\u0631\u0627 \u0628\u06cc\u0646\u06a9", "brand:ur": "\u06a9\u06cc\u0646\u0631\u0627 \u0628\u06cc\u0646\u06a9", "brand:wikidata": "Q2003777", "brand:wikipedia": "en:Canara Bank", "brand:wikipedia:pa": "\u0a15\u0a47\u0a28\u0a30\u0a3e \u0a2c\u0a48\u0a02\u0a15", "name": "Canara Bank", "name:en": "Canara Bank", "name:hi": "\u0915\u0947\u0928\u0930\u093e \u092c\u0948\u0902\u0915", "name:kn": "\u0c95\u0cc6\u0ca8\u0cb0\u0cbe \u0cac\u0ccd\u0caf\u0cbe\u0c82\u0c95\u0ccd", "name:pa": "\u0a15\u0a47\u0a28\u0a30\u0a3e \u0a2c\u0a48\u0a02\u0a15", "name:pnb": "\u06a9\u06cc\u0646\u0631\u0627 \u0628\u06cc\u0646\u06a9", "name:ur": "\u06a9\u06cc\u0646\u0631\u0627 \u0628\u06cc\u0646\u06a9"}}, {"type": "node", "id": 7255929402, "lat": 12.9915596, "lon": 77.5942361, "tags": {"amenity": "bank", "atm": "yes", "brand": "Bank of Baroda", "brand:wikidata": "Q2003797", "name": "Bank of Baroda", "name:kn": "\u0cac\u0ccd\u0caf\u0cbe\u0c82\u0c95\u0ccd \u0c86\u0cab\u0ccd \u0cac\u0cb0\u0ccb\u0ca1", "operator": "Bank of Baroda"}}, {"type": "node", "id": 7255929404, "lat": 12.9922679, "lon": 77.5949737, "tags": {"amenity": "bank", "atm": "yes", "brand": "Punjab National Bank", "brand:wikidata": "Q2743499", "fixme": "may not be exact location", "name": "Punjab National Bank", "name:kn": "\u0caa\u0c82\u0c9c\u0cbe\u0cac \u0cb0\u0cbe\u0cb7\u0ccd\u0c9f\u0ccd\u0cb0\u0cc0\u0caf \u0cac\u0ccd\u0caf\u0cbe\u0c82\u0c95\u0ccd", "operator": "Punjab National Bank"}}, {"type": "node", "id": 7276500360, "lat": 12.9824081, "lon": 77.5747713, "tags": {"amenity": "bank", "atm": "yes", "brand": "State Bank of India", "brand:wikidata": "Q1340361", "name": "State Bank of India", "operator": "State Bank of India", "short_name": "SBI"}}, {"type": "node", "id": 7292436129, "lat": 12.9720421, "lon": 77.5832324, "tags": {"amenity": "bank", "atm": "yes", "brand": "Axis Bank", "brand:wikidata": "Q2003549", "name": "Axis Bank", "name:kn": "\u0c86\u0c95\u0ccd\u0cb8\u0cbf\u0cb8\u0ccd \u0cac\u0ccd\u0caf\u0cbe\u0c82\u0c95\u0ccd", "operator": "Axis Bank"}}, {"type": "node", "id": 7292436130, "lat": 12.9721584, "lon": 77.5830647, "tags": {"amenity": "bank", "atm": "yes", "brand": "Canara Bank", "brand:en": "Canara Bank", "brand:hi": "\u0915\u0947\u0928\u0930\u093e \u092c\u0948\u0902\u0915", "brand:kn": "\u0c95\u0cc6\u0ca8\u0cb0\u0cbe \u0cac\u0ccd\u0caf\u0cbe\u0c82\u0c95\u0ccd", "brand:pa": "\u0a15\u0a47\u0a28\u0a30\u0a3e \u0a2c\u0a48\u0a02\u0a15", "brand:pnb": "\u06a9\u06cc\u0646\u0631\u0627 \u0628\u06cc\u0646\u06a9", "brand:ur": "\u06a9\u06cc\u0646\u0631\u0627 \u0628\u06cc\u0646\u06a9", "brand:wikidata": "Q2003777", "brand:wikipedia": "en:Canara Bank", "brand:wikipedia:pa": "\u0a15\u0a47\u0a28\u0a30\u0a3e \u0a2c\u0a48\u0a02\u0a15", "name": "Canara Bank", "name:en": "Canara Bank", "name:hi": "\u0915\u0947\u0928\u0930\u093e \u092c\u0948\u0902\u0915", "name:kn": "\u0c95\u0cc6\u0ca8\u0cb0\u0cbe \u0cac\u0ccd\u0caf\u0cbe\u0c82\u0c95\u0ccd", "name:pa": "\u0a15\u0a47\u0a28\u0a30\u0a3e \u0a2c\u0a48\u0a02\u0a15", "name:pnb": "\u06a9\u06cc\u0646\u0631\u0627 \u0628\u06cc\u0646\u06a9", "name:ur": "\u06a9\u06cc\u0646\u0631\u0627 \u0628\u06cc\u0646\u06a9"}}, {"type": "node", "id": 7292436131, "lat": 12.9722943, "lon": 77.5829172, "tags": {"amenity": "bank", "atm": "yes", "brand": "State Bank of India", "brand:wikidata": "Q1340361", "name": "State Bank of India", "operator": "State Bank of India", "short_name": "SBI"}}, {"type": "node", "id": 7292436135, "lat": 12.9732666, "lon": 77.5800808, "tags": {"amenity": "bank", "atm": "yes", "brand": "Kotak Mahindra Bank", "brand:wikidata": "Q2040404", "name": "Kotak Mahindra Bank", "name:kn": "\u0c95\u0ccb\u0c9f\u0c95\u0ccd \u0cae\u0cb9\u0cbf\u0c82\u0ca6\u0ccd\u0cb0 \u0cac\u0ccd\u0caf\u0cbe\u0c82\u0c95\u0ccd", "operator": "Kotak Mahindra Bank"}}, {"type": "node", "id": 7292436138, "lat": 12.9740926, "lon": 77.5782381, "tags": {"amenity": "bank", "atm": "yes", "brand": "South Indian Bank", "brand:wikidata": "Q2044973", "name": "South Indian Bank", "wheelchair": "no"}}, {"type": "node", "id": 7293708139, "lat": 12.9581548, "lon": 77.60537, "tags": {"amenity": "bank", "atm": "yes", "brand": "State Bank of India", "brand:wikidata": "Q1340361", "name": "State Bank of India", "name:kn": "\u0cad\u0cbe\u0cb0\u0ca4\u0cc0\u0caf \u0cb8\u0ccd\u0c9f\u0cc7\u0c9f\u0ccd \u0cac\u0ccd\u0caf\u0cbe\u0c82\u0c95\u0ccd", "operator": "State Bank of India", "short_name": "SBI"}}, {"type": "node", "id": 7293708149, "lat": 12.9630375, "lon": 77.6049435, "tags": {"amenity": "bank", "atm": "yes", "brand": "Union Bank of India", "brand:wikidata": "Q2004078", "name": "Union Bank of India", "name:kn": "\u0caf\u0cc2\u0ca8\u0cbf\u0caf\u0ca8\u0ccd \u0cac\u0ccd\u0caf\u0cbe\u0c82\u0c95\u0ccd", "operator": "Union Bank of India"}}, {"type": "node", "id": 7293719483, "lat": 12.9620404, "lon": 77.5937144, "tags": {"amenity": "bank", "atm": "yes", "brand": "State Bank of India", "brand:wikidata": "Q1340361", "name": "State Bank of India", "name:kn": "\u0cad\u0cbe\u0cb0\u0ca4\u0cc0\u0caf \u0cb8\u0ccd\u0c9f\u0cc7\u0c9f\u0ccd \u0cac\u0ccd\u0caf\u0cbe\u0c82\u0c95\u0ccd", "operator": "State Bank of India", "short_name": "SBI"}}, {"type": "node", "id": 7924794099, "lat": 12.9512403, "lon": 77.5687733, "tags": {"amenity": "bank", "atm": "yes", "brand": "State Bank of India", "brand:wikidata": "Q1340361", "name": "State Bank of India", "name:kn": "\u0c8e\u0cb8\u0ccd \u0cac\u0cbf \u0c90", "short_name": "SBI"}}, {"type": "node", "id": 8187962397, "lat": 13.0009024, "lon": 77.5715721, "tags": {"addr:full": "Malleshwaram branch, No 16 Nanjundeshwara Complex 10 TH CROSS, Sampige Rd, Vyalikaval, Yalappa Garden, Malleshwaram, Bengaluru, Karnataka", "addr:state": "Karnataka", "amenity": "bank", "atm": "yes", "name": "Vijaya Bank", "name:kn": "\u0cb5\u0cbf\u0c9c\u0caf \u0cac\u0ccd\u0caf\u0cbe\u0c82\u0c95\u0cc1"}}, {"type": "node", "id": 8187962405, "lat": 13.0001224, "lon": 77.5712818, "tags": {"addr:full": "No 24, Lalitha 2nd Cross, Sampige Rd, Yalappa Garden, Malleshwaram, Bengaluru, Karnataka", "addr:state": "Karnataka", "amenity": "bank", "brand": "State Bank of India", "brand:wikidata": "Q1340361", "brand:wikipedia": "en:State Bank of India", "name": "State Bank of India", "short_name": "SBI"}}, {"type": "node", "id": 8187962417, "lat": 12.9984609, "lon": 77.5730292, "tags": {"addr:full": "7th Cross Rd, Malleshwaram, Bengaluru, Karnataka", "addr:state": "Karnataka", "amenity": "bank", "brand": "Bank of Baroda", "brand:wikidata": "Q2003797", "brand:wikipedia": "en:Bank of Baroda", "name": "Bank of Baroda", "name:kn": "\u0cac\u0ccd\u0caf\u0cbe\u0c82\u0c95\u0ccd \u0c86\u0cab\u0ccd \u0cac\u0cb0\u0ccb\u0ca1"}}, {"type": "node", "id": 8187962426, "lat": 12.9977681, "lon": 77.5717257, "tags": {"addr:full": "Malleshwaram 6th cross, 159, 3rd Temple Rd, Sangeetha Apts, Malleshwaram, Bengaluru, Karnataka", "addr:state": "Karnataka", "amenity": "bank", "brand": "State Bank of India", "brand:wikidata": "Q1340361", "brand:wikipedia": "en:State Bank of India", "name": "State Bank of India", "short_name": "SBI"}}, {"type": "node", "id": 8187962443, "lat": 12.9961075, "lon": 77.5794798, "tags": {"addr:full": "No 161 2nd Cross, Main Road, DN Ramaiah Layout, Seshadripuram, Bengaluru, Karnataka", "addr:state": "Karnataka", "amenity": "bank", "brand": "Axis Bank", "brand:wikidata": "Q2003549", "name": "Axis Bank", "name:kn": "\u0c86\u0c95\u0ccd\u0cb8\u0cbf\u0cb8\u0ccd \u0cac\u0ccd\u0caf\u0cbe\u0c82\u0c95\u0ccd"}}, {"type": "node", "id": 8187962462, "lat": 12.9940393, "lon": 77.5776887, "tags": {"addr:full": "No 159, 1st Main Rd, near Bhimas Hotel, Sripuram, Kumara Park West, Seshadripuram, Bengaluru, Karnataka", "addr:state": "Karnataka", "amenity": "bank", "brand": "State Bank of India", "brand:wikidata": "Q1340361", "brand:wikipedia": "en:State Bank of India", "name": "State Bank of India", "short_name": "SBI"}}, {"type": "node", "id": 8187962473, "lat": 12.9931411, "lon": 77.5767129, "tags": {"addr:full": "162, 1st Main Rd, Near-Priya Jewelers, 4th Block, Kumara Park West, Seshadripuram, Bengaluru, Karnataka", "addr:state": "Karnataka", "amenity": "bank", "brand": "Indian Bank", "brand:wikidata": "Q2003789", "brand:wikipedia": "en:Indian Bank", "name": "Indian Bank", "name:kn": "\u0c87\u0c82\u0ca1\u0cbf\u0caf\u0ca8\u0ccd \u0cac\u0ccd\u0caf\u0cbe\u0c82\u0c95\u0ccd"}}, {"type": "node", "id": 8187962474, "lat": 12.9927951, "lon": 77.5898065, "tags": {"addr:full": "NANDI, GR. FL,I FLR,NO.11, 8th Main Rd, Vasanth Nagar, Bengaluru, Karnataka", "addr:state": "Karnataka", "amenity": "bank", "brand": "Corporation Bank", "brand:wikidata": "Q2003387", "name": "Corporation Bank", "name:kn": "\u0c95\u0cbe\u0cb0\u0ccd\u0caa\u0cb0\u0cc7\u0cb7\u0ca8\u0ccd \u0cac\u0ccd\u0caf\u0cbe\u0c82\u0c95\u0ccd"}}, {"type": "node", "id": 8187963426, "lat": 12.98, "lon": 77.576, "tags": {"addr:full": "Plot No 41, Seshadri Rd, Anand Rao Circle, Bengaluru, Karnataka", "addr:state": "Karnataka", "amenity": "bank", "brand": "Axis Bank", "brand:wikidata": "Q2003549", "name": "Axis Bank", "name:kn": "\u0c86\u0c95\u0ccd\u0cb8\u0cbf\u0cb8\u0ccd \u0cac\u0ccd\u0caf\u0cbe\u0c82\u0c95\u0ccd"}}, {"type": "node", "id": 8187963461, "lat": 12.9769785, "lon": 77.5788979, "tags": {"addr:full": "No 24, 2nd Cross Rd, Gandhi Nagar, Bengaluru, Karnataka", "addr:state": "Karnataka", "amenity": "bank", "brand": "Federal Bank", "brand:wikidata": "Q2044983", "name": "Federal Bank", "name:kn": "\u0cab\u0cc6\u0ca1\u0cc6\u0cb0\u0cb2\u0ccd \u0cac\u0ccd\u0caf\u0cbe\u0c82\u0c95\u0ccd"}}, {"type": "node", "id": 8240810687, "lat": 13.0009956, "lon": 77.599335, "tags": {"amenity": "bank", "atm": "yes", "brand": "Kotak Mahindra Bank", "brand:wikidata": "Q2040404", "name": "Kotak Mahindra Bank"}}, {"type": "node", "id": 8240810708, "lat": 12.9966808, "lon": 77.6114532, "tags": {"addr:city": "Bangalore", "addr:district": "Bengaluru Urban", "addr:postcode": "560005", "addr:street": "Coles Road", "amenity": "bank", "atm": "yes", "brand": "Bank of Baroda", "brand:wikidata": "Q2003797", "name": "Bank of Baroda", "name:kn": "\u0cac\u0ccd\u0caf\u0cbe\u0c82\u0c95\u0ccd \u0c86\u0cab\u0ccd \u0cac\u0cb0\u0ccb\u0ca1"}}, {"type": "node", "id": 8240858025, "lat": 12.9957125, "lon": 77.6109356, "tags": {"amenity": "bank", "atm": "yes", "brand": "Syndicate Bank", "brand:wikidata": "Q2004088", "name": "Syndicate Bank", "name:kn": "\u0cb8\u0cbf\u0c82\u0ca1\u0cbf\u0c95\u0cc7\u0c9f\u0ccd \u0cac\u0ccd\u0caf\u0cbe\u0c82\u0c95\u0ccd"}}, {"type": "node", "id": 9063471393, "lat": 12.9840625, "lon": 77.580813, "tags": {"amenity": "bank", "atm": "yes", "brand": "State Bank of India", "brand:wikidata": "Q1340361", "name": "State Bank of India", "short_name": "SBI"}}, {"type": "node", "id": 9063471395, "lat": 12.984414, "lon": 77.578281, "tags": {"amenity": "bank", "atm": "yes", "brand": "HDFC Bank", "brand:wikidata": "Q631047", "name": "HDFC Bank", "short_name": "HDFC"}}, {"type": "node", "id": 9214580875, "lat": 12.9642974, "lon": 77.6146317, "tags": {"amenity": "bank", "atm": "yes", "brand": "HDFC Bank", "brand:wikidata": "Q631047", "name": "HDFC Bank", "name:kn": "\u0c8e\u0c9a\u0ccd \u0ca1\u0cbf \u0c8e\u0cab\u0ccd \u0cb8\u0cbf", "operator": "HDFC Bank", "short_name": "HDFC"}}, {"type": "node", "id": 9296258312, "lat": 12.9596526, "lon": 77.5938318, "tags": {"amenity": "bank", "atm": "yes", "brand": "Canara Bank", "brand:en": "Canara Bank", "brand:hi": "\u0915\u0947\u0928\u0930\u093e \u092c\u0948\u0902\u0915", "brand:kn": "\u0c95\u0cc6\u0ca8\u0cb0\u0cbe \u0cac\u0ccd\u0caf\u0cbe\u0c82\u0c95\u0ccd", "brand:pa": "\u0a15\u0a47\u0a28\u0a30\u0a3e \u0a2c\u0a48\u0a02\u0a15", "brand:pnb": "\u06a9\u06cc\u0646\u0631\u0627 \u0628\u06cc\u0646\u06a9", "brand:ur": "\u06a9\u06cc\u0646\u0631\u0627 \u0628\u06cc\u0646\u06a9", "brand:wikidata": "Q2003777", "brand:wikipedia": "en:Canara Bank", "brand:wikipedia:pa": "\u0a15\u0a47\u0a28\u0a30\u0a3e \u0a2c\u0a48\u0a02\u0a15", "name": "Canara Bank", "name:en": "Canara Bank", "name:hi": "\u0915\u0947\u0928\u0930\u093e \u092c\u0948\u0902\u0915", "name:kn": "\u0c95\u0cc6\u0ca8\u0cb0\u0cbe \u0cac\u0ccd\u0caf\u0cbe\u0c82\u0c95\u0ccd", "name:pa": "\u0a15\u0a47\u0a28\u0a30\u0a3e \u0a2c\u0a48\u0a02\u0a15", "name:pnb": "\u06a9\u06cc\u0646\u0631\u0627 \u0628\u06cc\u0646\u06a9", "name:ur": "\u06a9\u06cc\u0646\u0631\u0627 \u0628\u06cc\u0646\u06a9"}}, {"type": "node", "id": 9296258314, "lat": 12.9590854, "lon": 77.5936373, "tags": {"amenity": "bank", "atm": "yes", "brand": "Karnataka Bank", "brand:wikidata": "Q2042632", "name": "Karnataka Bank", "name:kn": "\u0c95\u0cb0\u0ccd\u0ca8\u0cbe\u0c9f\u0c95 \u0cac\u0ccd\u0caf\u0cbe\u0c82\u0c95\u0ccd"}}, {"type": "node", "id": 9532858990, "lat": 12.9689056, "lon": 77.6002859, "tags": {"amenity": "bank", "atm": "yes", "brand": "Karnataka Bank", "brand:wikidata": "Q2042632", "name": "Karnataka Bank", "operator": "Karnataka Bank"}}, {"type": "node", "id": 9540035598, "lat": 12.970798, "lon": 77.5973193, "tags": {"amenity": "bank", "atm": "yes", "brand": "Canara Bank", "brand:en": "Canara Bank", "brand:hi": "\u0915\u0947\u0928\u0930\u093e \u092c\u0948\u0902\u0915", "brand:kn": "\u0c95\u0cc6\u0ca8\u0cb0\u0cbe \u0cac\u0ccd\u0caf\u0cbe\u0c82\u0c95\u0ccd", "brand:pa": "\u0a15\u0a47\u0a28\u0a30\u0a3e \u0a2c\u0a48\u0a02\u0a15", "brand:pnb": "\u06a9\u06cc\u0646\u0631\u0627 \u0628\u06cc\u0646\u06a9", "brand:ur": "\u06a9\u06cc\u0646\u0631\u0627 \u0628\u06cc\u0646\u06a9", "brand:wikidata": "Q2003777", "name": "Canara Bank", "name:en": "Canara Bank", "name:hi": "\u0915\u0947\u0928\u0930\u093e \u092c\u0948\u0902\u0915", "name:kn": "\u0c95\u0cc6\u0ca8\u0cb0\u0cbe \u0cac\u0ccd\u0caf\u0cbe\u0c82\u0c95\u0ccd", "name:pa": "\u0a15\u0a47\u0a28\u0a30\u0a3e \u0a2c\u0a48\u0a02\u0a15", "name:pnb": "\u06a9\u06cc\u0646\u0631\u0627 \u0628\u06cc\u0646\u06a9", "name:ur": "\u06a9\u06cc\u0646\u0631\u0627 \u0628\u06cc\u0646\u06a9", "operator": "Canara Bank"}}, {"type": "node", "id": 9633893495, "lat": 12.9717383, "lon": 77.606402, "tags": {"amenity": "bank", "atm": "yes", "brand": "AU Small Finance Bank", "brand:wikidata": "Q48729722", "name": "AU Small Finance Bank"}}, {"type": "node", "id": 9759859812, "lat": 13.0020334, "lon": 77.5690756, "tags": {"amenity": "bank", "atm": "yes", "brand": "CSB Bank", "brand:wikidata": "Q5053244", "name": "CSB Bank", "official_name": "Catholic Syrian Bank", "operator": "Catholic Syrian Bank"}}, {"type": "node", "id": 9784639603, "lat": 12.9928075, "lon": 77.5712389, "tags": {"addr:street": "Sampige Road", "amenity": "bank", "atm": "yes", "brand": "Union Bank of India", "brand:wikidata": "Q2004078", "check_date": "2024-03-02", "name": "Union Bank of India"}}, {"type": "node", "id": 9786116689, "lat": 12.9970928, "lon": 77.5715992, "tags": {"amenity": "bank", "atm": "yes", "brand": "Indian Overseas Bank", "brand:wikidata": "Q2003611", "name": "Indian Overseas Bank", "operator": "Indian Overseas Bank"}}, {"type": "node", "id": 9786123496, "lat": 13.003654, "lon": 77.6166234, "tags": {"amenity": "bank", "atm": "yes", "brand": "CSB Bank", "brand:wikidata": "Q5053244", "name": "CSB Bank", "official_name": "Catholic Syrian Bank", "operator": "Catholic Syrian Bank"}}, {"type": "node", "id": 9796560877, "lat": 12.9822329, "lon": 77.599225, "tags": {"amenity": "bank", "atm": "yes", "brand": "Kotak Mahindra Bank", "brand:wikidata": "Q2040404", "name": "Kotak Mahindra Bank", "operator": "Kotak Mahindra Bank"}}, {"type": "node", "id": 9796560886, "lat": 12.9821258, "lon": 77.5994678, "tags": {"amenity": "bank", "atm": "yes", "brand": "HDFC Bank", "brand:wikidata": "Q631047", "name": "HDFC Bank", "operator": "HDFC Bank", "short_name": "HDFC"}}, {"type": "node", "id": 9796560894, "lat": 12.9807928, "lon": 77.6013547, "tags": {"amenity": "bank", "atm": "yes", "brand": "HDFC Bank", "brand:wikidata": "Q631047", "name": "HDFC Bank", "name:kn": "\u0c8e\u0c9a\u0ccd \u0ca1\u0cbf \u0c8e\u0cab\u0ccd \u0cb8\u0cbf", "short_name": "HDFC"}}, {"type": "node", "id": 9812651067, "lat": 12.951792, "lon": 77.5671454}, {"type": "node", "id": 9812651068, "lat": 12.9516351, "lon": 77.5671448}, {"type": "node", "id": 9812651069, "lat": 12.9516341, "lon": 77.5674264}, {"type": "node", "id": 9812651070, "lat": 12.951791, "lon": 77.567427}, {"type": "node", "id": 9822861691, "lat": 12.9757986, "lon": 77.6030827, "tags": {"amenity": "bank", "brand": "State Bank of India", "brand:wikidata": "Q1340361", "brand:wikipedia": "en:State Bank of India", "level": "2", "name": "State Bank of India", "name:kn": "\u0cad\u0cbe\u0cb0\u0ca4\u0cc0\u0caf \u0cb8\u0ccd\u0c9f\u0cc7\u0c9f\u0ccd \u0cac\u0ccd\u0caf\u0cbe\u0c82\u0c95\u0ccd", "short_name": "SBI"}}, {"type": "node", "id": 9929991501, "lat": 12.9826877, "lon": 77.5977753, "tags": {"amenity": "bank", "atm": "yes", "brand": "Indian Overseas Bank", "brand:wikidata": "Q2003611", "name": "Indian Overseas Bank", "name:kn": "\u0c90 \u0c93 \u0cac\u0cbf", "operator": "Indian Overseas Bank"}}, {"type": "node", "id": 9996780318, "lat": 12.9829662, "lon": 77.6064877, "tags": {"amenity": "bank", "name": "Zion Bank"}}, {"type": "node", "id": 10009275920, "lat": 12.9796918, "lon": 77.6055656, "tags": {"amenity": "bank", "brand": "Karnataka Bank", "brand:wikidata": "Q2042632", "name": "Karnataka Bank"}}, {"type": "node", "id": 10009275921, "lat": 12.9795841, "lon": 77.6055942, "tags": {"amenity": "bank", "brand": "Muthoot Finance", "brand:wikidata": "Q6943861", "name": "Muthoot Finance", "office": "financial"}}, {"type": "node", "id": 10009275922, "lat": 12.9799217, "lon": 77.6056281, "tags": {"amenity": "bank", "brand": "Axis Bank", "brand:wikidata": "Q2003549", "name": "Axis Bank", "name:kn": "\u0c86\u0c95\u0ccd\u0cb8\u0cbf\u0cb8\u0ccd \u0cac\u0ccd\u0caf\u0cbe\u0c82\u0c95\u0ccd"}}, {"type": "node", "id": 10009310318, "lat": 12.9795087, "lon": 77.60607, "tags": {"amenity": "bank", "brand": "Canara Bank", "brand:en": "Canara Bank", "brand:hi": "\u0915\u0947\u0928\u0930\u093e \u092c\u0948\u0902\u0915", "brand:kn": "\u0c95\u0cc6\u0ca8\u0cb0\u0cbe \u0cac\u0ccd\u0caf\u0cbe\u0c82\u0c95\u0ccd", "brand:pa": "\u0a15\u0a47\u0a28\u0a30\u0a3e \u0a2c\u0a48\u0a02\u0a15", "brand:pnb": "\u06a9\u06cc\u0646\u0631\u0627 \u0628\u06cc\u0646\u06a9", "brand:ur": "\u06a9\u06cc\u0646\u0631\u0627 \u0628\u06cc\u0646\u06a9", "brand:wikidata": "Q2003777", "name": "Canara Bank", "name:en": "Canara Bank", "name:hi": "\u0915\u0947\u0928\u0930\u093e \u092c\u0948\u0902\u0915", "name:kn": "\u0c95\u0cc6\u0ca8\u0cb0\u0cbe \u0cac\u0ccd\u0caf\u0cbe\u0c82\u0c95\u0ccd", "name:pa": "\u0a15\u0a47\u0a28\u0a30\u0a3e \u0a2c\u0a48\u0a02\u0a15", "name:pnb": "\u06a9\u06cc\u0646\u0631\u0627 \u0628\u06cc\u0646\u06a9", "name:ur": "\u06a9\u06cc\u0646\u0631\u0627 \u0628\u06cc\u0646\u06a9"}}, {"type": "node", "id": 10009334917, "lat": 12.9810884, "lon": 77.6060136, "tags": {"amenity": "bank", "brand": "South Indian Bank", "brand:wikidata": "Q2044973", "name": "South Indian Bank"}}, {"type": "node", "id": 10009343417, "lat": 12.9794545, "lon": 77.6062106, "tags": {"amenity": "bank", "brand": "ICICI Bank", "brand:wikidata": "Q1653258", "name": "ICICI Bank", "short_name": "ICICI"}}, {"type": "node", "id": 10047214021, "lat": 12.9815446, "lon": 77.6040916, "tags": {"amenity": "bank", "brand": "Indian Bank", "brand:wikidata": "Q2003789", "name": "Indian Bank", "name:kn": "\u0c87\u0c82\u0ca1\u0cbf\u0caf\u0ca8\u0ccd \u0cac\u0ccd\u0caf\u0cbe\u0c82\u0c95\u0ccd"}}, {"type": "node", "id": 10047214121, "lat": 12.9815186, "lon": 77.604462, "tags": {"amenity": "bank", "brand": "State Bank of India", "brand:wikidata": "Q1340361", "name": "State Bank of India", "short_name": "SBI"}}, {"type": "node", "id": 10047222619, "lat": 12.9804106, "lon": 77.6044099, "tags": {"amenity": "bank", "name": "J & K Bank"}}, {"type": "node", "id": 10286250885, "lat": 12.9961908, "lon": 77.5640237, "tags": {"amenity": "bank", "atm": "yes", "brand": "Canara Bank", "brand:en": "Canara Bank", "brand:hi": "\u0915\u0947\u0928\u0930\u093e \u092c\u0948\u0902\u0915", "brand:kn": "\u0c95\u0cc6\u0ca8\u0cb0\u0cbe \u0cac\u0ccd\u0caf\u0cbe\u0c82\u0c95\u0ccd", "brand:pa": "\u0a15\u0a47\u0a28\u0a30\u0a3e \u0a2c\u0a48\u0a02\u0a15", "brand:pnb": "\u06a9\u06cc\u0646\u0631\u0627 \u0628\u06cc\u0646\u06a9", "brand:ur": "\u06a9\u06cc\u0646\u0631\u0627 \u0628\u06cc\u0646\u06a9", "brand:wikidata": "Q2003777", "name": "Canara Bank", "name:en": "Canara Bank", "name:hi": "\u0915\u0947\u0928\u0930\u093e \u092c\u0948\u0902\u0915", "name:kn": "\u0c95\u0cc6\u0ca8\u0cb0\u0cbe \u0cac\u0ccd\u0caf\u0cbe\u0c82\u0c95\u0ccd", "name:pa": "\u0a15\u0a47\u0a28\u0a30\u0a3e \u0a2c\u0a48\u0a02\u0a15", "name:pnb": "\u06a9\u06cc\u0646\u0631\u0627 \u0628\u06cc\u0646\u06a9", "name:ur": "\u06a9\u06cc\u0646\u0631\u0627 \u0628\u06cc\u0646\u06a9", "operator": "Canara Bank"}}, {"type": "node", "id": 10601700605, "lat": 12.9849661, "lon": 77.5963422, "tags": {"amenity": "bank", "atm": "yes", "brand": "IDFC First Bank", "brand:wikidata": "Q22031467", "name": "IDFC First Bank", "operator": "IDFC First Bank"}}, {"type": "node", "id": 10697561504, "lat": 12.9633163, "lon": 77.5889106, "tags": {"amenity": "bank", "brand": "State Bank of India", "brand:wikidata": "Q1340361", "name": "State Bank of India", "short_name": "SBI"}}, {"type": "node", "id": 10792855170, "lat": 12.9823686, "lon": 77.6082193, "tags": {"amenity": "bank", "atm": "yes", "brand": "Punjab National Bank", "brand:wikidata": "Q2743499", "check_date": "2023-04-07", "name": "Punjab National Bank", "name:kn": "\u0caa\u0c82\u0c9c\u0cbe\u0cac \u0cb0\u0cbe\u0cb7\u0ccd\u0c9f\u0ccd\u0cb0\u0cc0\u0caf \u0cac\u0ccd\u0caf\u0cbe\u0c82\u0c95\u0ccd"}}, {"type": "node", "id": 10853089401, "lat": 12.9634257, "lon": 77.5842141, "tags": {"amenity": "bank", "atm": "yes", "brand": "Union Bank", "name": "Union Bank", "operator": "Union Bank"}}, {"type": "node", "id": 10895966356, "lat": 12.9578594, "lon": 77.5926986, "tags": {"amenity": "bank", "atm": "yes", "brand": "ICICI Bank", "brand:wikidata": "Q1653258", "name": "ICICI Bank", "name:kn": "\u0c90\u0cb8\u0cbf\u0c90\u0cb8\u0cbf\u0c90 \u0cac\u0ccd\u0caf\u0cbe\u0c82\u0c95\u0cc1", "operator": "ICICI Bank", "short_name": "ICICI"}}, {"type": "node", "id": 10934276537, "lat": 12.999063, "lon": 77.5736488, "tags": {"amenity": "bank", "atm": "yes", "brand": "Canara Bank", "brand:en": "Canara Bank", "brand:hi": "\u0915\u0947\u0928\u0930\u093e \u092c\u0948\u0902\u0915", "brand:kn": "\u0c95\u0cc6\u0ca8\u0cb0\u0cbe \u0cac\u0ccd\u0caf\u0cbe\u0c82\u0c95\u0ccd", "brand:pa": "\u0a15\u0a47\u0a28\u0a30\u0a3e \u0a2c\u0a48\u0a02\u0a15", "brand:pnb": "\u06a9\u06cc\u0646\u0631\u0627 \u0628\u06cc\u0646\u06a9", "brand:ur": "\u06a9\u06cc\u0646\u0631\u0627 \u0628\u06cc\u0646\u06a9", "brand:wikidata": "Q2003777", "name": "Canara Bank", "name:en": "Canara Bank", "name:hi": "\u0915\u0947\u0928\u0930\u093e \u092c\u0948\u0902\u0915", "name:kn": "\u0c95\u0cc6\u0ca8\u0cb0\u0cbe \u0cac\u0ccd\u0caf\u0cbe\u0c82\u0c95\u0ccd", "name:pa": "\u0a15\u0a47\u0a28\u0a30\u0a3e \u0a2c\u0a48\u0a02\u0a15", "name:pnb": "\u06a9\u06cc\u0646\u0631\u0627 \u0628\u06cc\u0646\u06a9", "name:ur": "\u06a9\u06cc\u0646\u0631\u0627 \u0628\u06cc\u0646\u06a9", "operator": "Canara Bank"}}, {"type": "node", "id": 11096882135, "lat": 12.9944698, "lon": 77.5936554, "tags": {"amenity": "bank", "atm": "yes", "brand": "State Bank of India", "brand:wikidata": "Q1340361", "name": "State Bank of India", "name:kn": "\u0c8e\u0cb8\u0ccd \u0cac\u0cbf \u0c90", "operator": "State Bank of India", "short_name": "SBI"}}, {"type": "node", "id": 11096914873, "lat": 12.9963894, "lon": 77.612109, "tags": {"amenity": "bank", "atm": "yes", "brand": "Canara Bank", "brand:en": "Canara Bank", "brand:hi": "\u0915\u0947\u0928\u0930\u093e \u092c\u0948\u0902\u0915", "brand:kn": "\u0c95\u0cc6\u0ca8\u0cb0\u0cbe \u0cac\u0ccd\u0caf\u0cbe\u0c82\u0c95\u0ccd", "brand:pa": "\u0a15\u0a47\u0a28\u0a30\u0a3e \u0a2c\u0a48\u0a02\u0a15", "brand:pnb": "\u06a9\u06cc\u0646\u0631\u0627 \u0628\u06cc\u0646\u06a9", "brand:ur": "\u06a9\u06cc\u0646\u0631\u0627 \u0628\u06cc\u0646\u06a9", "brand:wikidata": "Q2003777", "name": "Canara Bank", "name:en": "Canara Bank", "name:hi": "\u0915\u0947\u0928\u0930\u093e \u092c\u0948\u0902\u0915", "name:kn": "\u0c95\u0cc6\u0ca8\u0cb0\u0cbe \u0cac\u0ccd\u0caf\u0cbe\u0c82\u0c95\u0ccd", "name:pa": "\u0a15\u0a47\u0a28\u0a30\u0a3e \u0a2c\u0a48\u0a02\u0a15", "name:pnb": "\u06a9\u06cc\u0646\u0631\u0627 \u0628\u06cc\u0646\u06a9", "name:ur": "\u06a9\u06cc\u0646\u0631\u0627 \u0628\u06cc\u0646\u06a9", "operator": "Canara Bank"}}, {"type": "node", "id": 11096914886, "lat": 12.9945782, "lon": 77.6157166, "tags": {"amenity": "bank", "atm": "yes", "brand": "Yes Bank", "brand:wikidata": "Q2040394", "name": "Yes Bank", "operator": "Yes Bank"}}, {"type": "node", "id": 11102370575, "lat": 12.9710319, "lon": 77.6067815, "tags": {"addr:city": "Bangalore", "addr:floor": "G", "addr:hamlet": "Shanthala Nagar", "addr:housenumber": "1", "addr:postcode": "560 025", "addr:state": "KA", "addr:street": "Brigade Road", "addr:suburb": "Ashok Nagar", "amenity": "bank", "atm": "yes", "brand": "Bank of Maharashtra", "brand:wikidata": "Q2004304", "check_date": "2025-11-03", "level": "0", "name": "Bank of Maharashtra", "name:kn": "\u0cac\u0ccd\u0caf\u0cbe\u0c82\u0c95\u0ccd \u0c86\u0cab\u0ccd \u0cae\u0cb9\u0cb0\u0cbe\u0cb7\u0ccd\u0c9f\u0ccd\u0cb0", "operator": "Bank of Maharashtra"}}, {"type": "node", "id": 11178079816, "lat": 12.9570024, "lon": 77.5648634, "tags": {"addr:housenumber": "59", "addr:street": "Chamrajpet 5th Main Road", "amenity": "bank", "brand": "Axis Bank", "brand:wikidata": "Q2003549", "check_date": "2023-09-09", "name": "Axis Bank"}}, {"type": "node", "id": 11178079818, "lat": 12.9569798, "lon": 77.564357, "tags": {"amenity": "bank", "atm": "yes", "brand": "Kotak Mahindra Bank", "brand:wikidata": "Q2040404", "check_date": "2023-09-09", "name": "Kotak Mahindra Bank"}}, {"type": "node", "id": 11178098073, "lat": 12.9574238, "lon": 77.569714, "tags": {"amenity": "bank", "check_date": "2023-09-09", "name": "Tumkur Veerashaiva Co-opperative Bank"}}, {"type": "node", "id": 11178098249, "lat": 12.9569748, "lon": 77.5689944, "tags": {"amenity": "bank", "atm": "yes", "branch": "Shanakarapuram", "brand": "State Bank of India", "brand:wikidata": "Q1340361", "check_date": "2023-09-09", "drive_through": "no", "full_name": "SBI Shanakarapuram Branch", "name": "State Bank of India", "operator": "State Bank of India", "short_name": "SBI"}}, {"type": "node", "id": 11178123524, "lat": 12.958223, "lon": 77.5684377, "tags": {"amenity": "bank", "check_date": "2023-09-09", "name": "The Hotel Industrialist's Co-Op Bank Ltd", "opening_hours": "Mo-Sa 10:00-18:00"}}, {"type": "node", "id": 11178123935, "lat": 12.9555133, "lon": 77.5695095, "tags": {"amenity": "bank", "check_date": "2023-09-09", "name": "Sir M Vishweshwaraya Co Operative Bank", "wheelchair": "no"}}, {"type": "node", "id": 11178146175, "lat": 12.9510913, "lon": 77.5677782, "tags": {"amenity": "bank", "atm": "yes", "brand": "IDFC First Bank", "brand:wikidata": "Q22031467", "check_date": "2023-09-09", "description": "Basavanagudi Branch", "name": "IDFC First Bank", "name:en": "IDFC First Bank", "wheelchair": "yes"}}, {"type": "node", "id": 11178147828, "lat": 12.9569802, "lon": 77.5636474, "tags": {"addr:housenumber": "66", "addr:street": "Chamrajpet 5th Main Road", "amenity": "bank", "check_date": "2023-09-09", "name": "Daivajna Credit Cooperative Society"}}, {"type": "node", "id": 11178150971, "lat": 12.9571059, "lon": 77.5705359, "tags": {"amenity": "bank", "atm": "no", "branch": "Chamrajpet", "brand": "Karnataka Bank", "brand:wikidata": "Q2042632", "check_date": "2023-09-09", "drive_through": "no", "name": "Karnataka Bank", "name:kn": "\u0c95\u0cb0\u0ccd\u0ca8\u0cbe\u0c9f\u0c95 \u0cac\u0ccd\u0caf\u0cbe\u0c82\u0c95\u0ccd", "opening_hours": "Mo-Sa 10:00-14:00,14:30-16:00; Sa[2,4] off", "operator": "Karnataka Bank"}}, {"type": "node", "id": 11178159732, "lat": 12.957053, "lon": 77.56383, "tags": {"amenity": "bank", "atm": "yes", "brand": "State Bank of India", "brand:wikidata": "Q1340361", "check_date": "2023-09-09", "name": "State Bank of India", "operator": "State Bank of India", "short_name": "SBI"}}, {"type": "node", "id": 11214889028, "lat": 12.984269, "lon": 77.5865757, "tags": {"amenity": "bank", "atm": "yes", "brand": "Bank of Baroda", "brand:wikidata": "Q2003797", "name": "Bank of Baroda", "operator": "Bank of Baroda"}}, {"type": "node", "id": 11215576568, "lat": 12.9751851, "lon": 77.6028219, "tags": {"addr:housename": "The Museum", "addr:street": "Museum Road", "addr:suburb": "Shanthala Nagar", "amenity": "bank", "atm": "yes", "brand": "IndusInd Bank", "brand:wikidata": "Q2040323", "name": "IndusInd Bank"}}, {"type": "node", "id": 11255385171, "lat": 13.0012692, "lon": 77.5694455, "tags": {"amenity": "bank", "brand": "IndusInd Bank", "brand:wikidata": "Q2040323", "check_date": "2024-05-12", "name": "IndusInd Bank"}}, {"type": "node", "id": 11281283563, "lat": 12.9966141, "lon": 77.5804456, "tags": {"amenity": "bank", "atm": "yes", "brand": "Bandhan Bank", "brand:wikidata": "Q19882235", "name": "Bandhan Bank", "operator": "Bandhan Bank"}}, {"type": "node", "id": 11282630668, "lat": 12.9880012, "lon": 77.6175244, "tags": {"amenity": "bank", "atm": "yes", "brand": "HDFC Bank", "brand:wikidata": "Q631047", "name": "HDFC Bank", "operator": "HDFC Bank", "short_name": "HDFC"}}, {"type": "node", "id": 11295836833, "lat": 12.9978343, "lon": 77.5695449, "tags": {"amenity": "bank", "check_date": "2023-07-01", "mapillary": "815192133160945", "name": "Utkarsh Small Finance Bank"}}, {"type": "node", "id": 11295836845, "lat": 12.9985422, "lon": 77.569579, "tags": {"amenity": "bank", "brand": "Axis Bank", "brand:wikidata": "Q2003549", "check_date": "2023-07-01", "mapillary": "657312499176133", "name": "Axis Bank"}}, {"type": "node", "id": 11331558610, "lat": 12.9589981, "lon": 77.5825067, "tags": {"amenity": "bank", "brand": "Union Bank of India", "brand:wikidata": "Q2004078", "name": "Union Bank of India"}}, {"type": "node", "id": 11355730140, "lat": 12.9596838, "lon": 77.5829494, "tags": {"amenity": "bank", "brand": "Yes Bank", "brand:wikidata": "Q2040394", "check_date": "2023-11-16", "name": "Yes Bank"}}, {"type": "node", "id": 11355730141, "lat": 12.9607154, "lon": 77.5835644, "tags": {"amenity": "bank", "brand": "State Bank of India", "brand:wikidata": "Q1340361", "check_date": "2023-11-16", "name": "State Bank of India", "name:kn": "\u0c8e\u0cb8\u0ccd \u0cac\u0cbf \u0c90", "short_name": "SBI"}}, {"type": "node", "id": 11416992093, "lat": 12.9596245, "lon": 77.5832707, "tags": {"amenity": "bank", "brand": "HDFC Bank", "brand:wikidata": "Q631047", "check_date": "2023-12-14", "name": "HDFC Bank", "name:kn": "\u0c8e\u0c9a\u0ccd \u0ca1\u0cbf \u0c8e\u0cab\u0ccd \u0cb8\u0cbf", "short_name": "HDFC"}}, {"type": "node", "id": 11428856981, "lat": 13.0019836, "lon": 77.5696866, "tags": {"amenity": "bank", "brand": "Union Bank of India", "brand:wikidata": "Q2004078", "name": "Union Bank of India", "name:kn": "\u0caf\u0cc2\u0ca8\u0cbf\u0caf\u0ca8\u0ccd \u0cac\u0ccd\u0caf\u0cbe\u0c82\u0c95\u0ccd"}}, {"type": "node", "id": 11472852222, "lat": 13.000276, "lon": 77.6176255, "tags": {"amenity": "bank", "atm": "yes", "brand": "UCO Bank", "brand:wikidata": "Q2005310", "check_date": "2023-12-31", "name": "UCO Bank", "name:kn": "\u0caf\u0cc2\u0c95\u0cca \u0cac\u0ccd\u0caf\u0cbe\u0c82\u0c95\u0ccd", "opening_hours": "Mo-Fr 10:00-14:00,14:30-16:00"}},