{"version": 0.6, "generator": "Overpass API 0.7.62.8 e802775f", "osm3s": {"timestamp_osm_base": "2025-11-29T15:51:52Z", "copyright": "The data included in this document is from www.openstreetmap.org. The data is made available under ODbL."}, "elements": [{"type": "node", "id": 266324684, "lat": 12.9212938, "lon": 77.6635656, "tags": {"addr:street": "Outer Ring Road", "name": "Gangothri Residency", "name:kn": "\u0c97\u0c82\u0c97\u0ccb\u0ca4\u0ccd\u0cb0\u0cbf \u0cb0\u0cc6\u0cb8\u0cbf\u0ca1\u0cc6\u0ca8\u0ccd\u0cb8\u0cbf", "tourism": "hotel"}}, {"type": "node", "id": 266324687, "lat": 12.9214046, "lon": 77.6639051, "tags": {"addr:street": "Outer Ring Road", "name": "Ringview Residency", "name:kn": "\u0cb0\u0cbf\u0c82\u0c97\u0ccd \u0cb5\u0cc0\u0cb5\u0ccd \u0cb0\u0cc6\u0cb8\u0cbf\u0ca1\u0cc6\u0ca8\u0ccd\u0cb8\u0cbf ", "tourism": "hotel"}}, {"type": "node", "id": 312508517, "lat": 12.9576977, "lon": 77.6448464}, {"type": "node", "id": 312595934, "lat": 12.9572442, "lon": 77.6436319}, {"type": "node", "id": 312596310, "lat": 12.9573352, "lon": 77.6435802}, {"type": "node", "id": 341142340, "lat": 12.9621022, "lon": 77.6481565}, {"type": "node", "id": 341142344, "lat": 12.9619904, "lon": 77.6492778}, {"type": "node", "id": 341142348, "lat": 12.9599821, "lon": 77.6490522}, {"type": "node", "id": 423747687, "lat": 12.9684571, "lon": 77.6014051}, {"type": "node", "id": 423747689, "lat": 12.9678483, "lon": 77.6022713}, {"type": "node", "id": 423747690, "lat": 12.9676285, "lon": 77.6018841}, {"type": "node", "id": 429697565, "lat": 12.9762752, "lon": 77.5767096, "tags": {"name": "Hotel Hindustan", "name:kn": "\u0cb9\u0cca\u0c9f\u0cc6\u0cb2\u0ccd \u0cb9\u0cbf\u0c82\u0ca6\u0cc1\u0cb8\u0ccd\u0ca5\u0cbe\u0ca8", "tourism": "hotel"}}, {"type": "node", "id": 429698095, "lat": 12.9769025, "lon": 77.5763491, "tags": {"addr:city": "Gandhi Nagar, Bangalore", "addr:housenumber": "10", "addr:postcode": "560009", "addr:street": "2nd Cross, 6th Main Road", "name": "Hotel Anand Regency", "phone": "+91-80-41139572", "tourism": "hotel"}}, {"type": "node", "id": 430047632, "lat": 12.9876628, "lon": 77.5842338}, {"type": "node", "id": 443648808, "lat": 13.0285953, "lon": 77.6356987}, {"type": "node", "id": 443648809, "lat": 13.0284353, "lon": 77.6356741}, {"type": "node", "id": 443648810, "lat": 13.0284542, "lon": 77.6355452}, {"type": "node", "id": 443648811, "lat": 13.0286141, "lon": 77.6355698}, {"type": "node", "id": 456029958, "lat": 12.9932258, "lon": 77.5717309, "tags": {"addr:street": "Sampige Road", "name": "Sri Krishna Lodge", "tourism": "hotel"}}, {"type": "node", "id": 459478508, "lat": 12.9675378, "lon": 77.5952332}, {"type": "node", "id": 459478509, "lat": 12.967631, "lon": 77.5949668}, {"type": "node", "id": 459815988, "lat": 12.9717341, "lon": 77.5952057}, {"type": "node", "id": 461755232, "lat": 12.9934167, "lon": 77.5813911}, {"type": "node", "id": 461755234, "lat": 12.992427, "lon": 77.583323}, {"type": "node", "id": 461755237, "lat": 12.9920254, "lon": 77.5804496}, {"type": "node", "id": 461755242, "lat": 12.9911741, "lon": 77.5825028}, {"type": "node", "id": 461755267, "lat": 12.9944553, "lon": 77.5866102}, {"type": "node", "id": 461755270, "lat": 12.9924704, "lon": 77.5885619}, {"type": "node", "id": 461755380, "lat": 12.9873001, "lon": 77.5853586}, {"type": "node", "id": 461755381, "lat": 12.9864443, "lon": 77.5852778}, {"type": "node", "id": 461789651, "lat": 12.9843087, "lon": 77.5836303}, {"type": "node", "id": 461789658, "lat": 12.9839184, "lon": 77.5854176}, {"type": "node", "id": 578114640, "lat": 12.9897794, "lon": 77.58002}, {"type": "node", "id": 578114642, "lat": 12.9898657, "lon": 77.5805917}, {"type": "node", "id": 578114655, "lat": 12.9895333, "lon": 77.5814721}, {"type": "node", "id": 595406585, "lat": 12.943205, "lon": 77.5847176}, {"type": "node", "id": 661983027, "lat": 12.9825244, "lon": 77.5944641}, {"type": "node", "id": 661983028, "lat": 12.9821111, "lon": 77.5945094}, {"type": "node", "id": 661983029, "lat": 12.9827213, "lon": 77.5947439}, {"type": "node", "id": 661983030, "lat": 12.9828455, "lon": 77.5944035}, {"type": "node", "id": 663683086, "lat": 12.9822391, "lon": 77.594459, "tags": {"addr:city": "Bangalore", "addr:postcode": "560001", "addr:street": "Raj Bhavan Road", "name": "The Capitol", "tourism": "hotel"}}, {"type": "node", "id": 665068826, "lat": 12.9796632, "lon": 77.5865917}, {"type": "node", "id": 665068841, "lat": 12.9800375, "lon": 77.5864001}, {"type": "node", "id": 1005525039, "lat": 12.980445, "lon": 77.604525, "tags": {"addr:city": "Bangalore", "addr:housenumber": "66", "addr:postcode": "560001", "addr:street": "Infantry Road", "email": "enquiry@theinfantryhotel.com", "fax": "+918025592276", "internet_access": "yes", "internet_access:fee": "yes", "name": "The Infantry Hotel", "phone": "+918025591800", "tourism": "hotel", "website": "http://www.hotelinfantrycourt.com"}}, {"type": "node", "id": 1006462322, "lat": 12.980921, "lon": 77.576491, "tags": {"addr:city": "Gandhi Nagar, Bangalore", "addr:housenumber": "22/4", "addr:postcode": "560009", "addr:street": "Race Course Road", "email": "reservations@hotelmaurya.com", "fax": "+91-80-22256685", "name": "Hotel Maurya", "phone": "+91-80-22254111", "tourism": "hotel", "website": "https://www.hotelmaurya.com/"}}, {"type": "node", "id": 1006462329, "lat": 12.9839472, "lon": 77.5780127}, {"type": "node", "id": 1006492448, "lat": 12.989096, "lon": 77.572253, "tags": {"addr:city": "Seshadripuram, Bangalore", "addr:housenumber": "1", "addr:postcode": "560020", "addr:street": "Railway Platform Road", "name": "Hotel Swathi", "name:kn": "\u0cb8\u0ccd\u0cb5\u0ca4\u0cbf", "phone": "+91-80-23561123", "tourism": "hotel"}}, {"type": "node", "id": 1026441566, "lat": 12.9850452, "lon": 77.579248, "tags": {"addr:city": "Bangalore", "addr:housenumber": "2A-2B", "addr:postcode": "560001", "addr:street": "Crescent Road, High Ground", "email": "reservation@nalapadhotels.net", "internet_access": "yes", "internet_access:fee": "yes", "name": "Nalapad's Hotel Bangalore International", "smoking": "dedicated", "stars": "3", "tourism": "hotel", "website": "http://www.nalapad.com", "wheelchair": "no"}}, {"type": "node", "id": 1044323510, "lat": 12.9727609, "lon": 77.5701982, "tags": {"addr:city": "Chickpet, Bangalore", "addr:housenumber": "6", "addr:postcode": "560053", "addr:street": "Cottonpet Main Road", "name": "Sudha Lodge", "phone": "+91-80-26705420", "tourism": "hotel"}}, {"type": "node", "id": 1044325327, "lat": 12.9717886, "lon": 77.5705791, "tags": {"addr:housenumber": "13", "addr:street": "Cottonpete Main Road", "name": "Radha Krishna Delux Lodge", "tourism": "hotel"}}, {"type": "node", "id": 1061341352, "lat": 12.9665776, "lon": 77.5951759}, {"type": "node", "id": 1061341359, "lat": 12.9675829, "lon": 77.5963911}, {"type": "node", "id": 1061341361, "lat": 12.9666091, "lon": 77.5964789}, {"type": "node", "id": 1080055848, "lat": 12.974344, "lon": 77.5712299, "tags": {"addr:city": "Bangalore", "addr:street": "Tank Bund Road", "name": "Hotel Mahaveer", "name:kn": "\u0cae\u0cb9\u0cbe\u0cb5\u0cc0\u0cb0", "tourism": "hotel"}}, {"type": "node", "id": 1087884426, "lat": 12.944337, "lon": 77.620028, "tags": {"addr:city": "Bangalore", "addr:housenumber": "3", "addr:postcode": "560095", "name": "Hotel Ganga Sagar", "phone": "+91-80-25704880", "tourism": "hotel"}}, {"type": "node", "id": 1091417875, "lat": 12.9585862, "lon": 77.648591}, {"type": "node", "id": 1091417881, "lat": 12.9597001, "lon": 77.6484524}, {"type": "node", "id": 1091417884, "lat": 12.9586835, "lon": 77.6482833}, {"type": "node", "id": 1108016257, "lat": 12.967339, "lon": 77.5427777, "tags": {"name": "CYCD", "tourism": "hotel"}}, {"type": "node", "id": 1116484557, "lat": 12.9853747, "lon": 77.5792337}, {"type": "node", "id": 1213656725, "lat": 12.9539135, "lon": 77.6398402}, {"type": "node", "id": 1213657227, "lat": 12.9536077, "lon": 77.6390234}, {"type": "node", "id": 1213657366, "lat": 12.9540601, "lon": 77.6390995}, {"type": "node", "id": 1232939382, "lat": 12.9729763, "lon": 77.5948551}, {"type": "node", "id": 1232939387, "lat": 12.9722616, "lon": 77.5942855}, {"type": "node", "id": 1232939416, "lat": 12.9728515, "lon": 77.5954034}, {"type": "node", "id": 1232939458, "lat": 12.9725427, "lon": 77.5955431}, {"type": "node", "id": 1232939467, "lat": 12.9720732, "lon": 77.5943429}, {"type": "node", "id": 1274328898, "lat": 12.9353574, "lon": 77.6293981, "tags": {"name": "Maple's", "tourism": "hotel"}}, {"type": "node", "id": 1306429239, "lat": 12.984215, "lon": 77.6005578, "tags": {"internet_access": "wlan", "name": "Hotel Ramada", "name:kn": "\u0cb0\u0cae\u0ca1", "tourism": "hotel"}}, {"type": "node", "id": 1314943420, "lat": 12.980883, "lon": 77.575992, "tags": {"addr:city": "Bangalore", "addr:housenumber": "5/43", "addr:postcode": "560009", "addr:street": "Race Course Road", "email": "jpcelestial@fortunehotels.in", "fax": "+91-80-41476060", "internet_access": "yes", "name": "Fortune Park JP Celestial Hotel", "phone": "+91-80-40441234; +91-80-39884433", "tourism": "hotel", "website": "https://www.fortunehotels.in/"}}, {"type": "node", "id": 1375978230, "lat": 12.9342871, "lon": 77.6161496, "tags": {"name": "Terminus", "tourism": "hotel"}}, {"type": "node", "id": 1375978288, "lat": 12.9335142, "lon": 77.6151725, "tags": {"name": "Blue Petal Business Hotel", "tourism": "hotel"}}, {"type": "node", "id": 1434179292, "lat": 12.9596344, "lon": 77.6490229}, {"type": "node", "id": 1465192273, "lat": 12.9671321, "lon": 77.6822005, "tags": {"name": "Century", "tourism": "hotel"}}, {"type": "node", "id": 1468516364, "lat": 12.9372193, "lon": 77.619574, "tags": {"addr:city": "Bangalore", "addr:housenumber": "95", "addr:postcode": "560095", "addr:street": "5th Cross Road 60 FEET ROAD", "air_conditioning": "yes", "atm": "yes", "brand": "HOTEL", "description": "SERVICED APARTMENTS & ROOMS", "email": "4SEASONSSUITES@GMAIL.COM", "internet_access": "yes", "name": "4 Seasons Suites", "name:en": "4 SEASONS SUITES", "rooms": "20", "tourism": "hotel", "website": "https://4SEASONSSSUITES.IN", "wheelchair": "limited"}}, {"type": "node", "id": 1470634306, "lat": 12.9363256, "lon": 77.6222355, "tags": {"addr:city": "Bangalore", "addr:postcode": "560095", "addr:street": "17th E Main", "name": "Casa De Bengaluru", "smoking": "separated", "tourism": "hotel"}}, {"type": "node", "id": 1472017110, "lat": 12.9262515, "lon": 77.6168174, "tags": {"addr:street": "Hosur road", "name": "Royal Comforts", "tourism": "hotel"}}, {"type": "node", "id": 1472876995, "lat": 12.9409092, "lon": 77.6278297, "tags": {"tourism": "hotel"}}, {"type": "node", "id": 1473221155, "lat": 12.9726938, "lon": 77.6193889}, {"type": "node", "id": 1473221156, "lat": 12.9727224, "lon": 77.6188401}, {"type": "node", "id": 1473221161, "lat": 12.9728717, "lon": 77.6198723}, {"type": "node", "id": 1473221163, "lat": 12.973021, "lon": 77.6199522}, {"type": "node", "id": 1473308088, "lat": 12.938785, "lon": 77.6300973, "tags": {"cuisine": "international", "name": "Shilton Royale", "tourism": "hotel"}}, {"type": "node", "id": 1473330368, "lat": 12.9383855, "lon": 77.6310907, "tags": {"name": "CHef Inn Residency", "tourism": "hotel"}}, {"type": "node", "id": 1474298491, "lat": 12.9264034, "lon": 77.5858296, "tags": {"name": "Pai Vijay", "tourism": "hotel"}}, {"type": "node", "id": 1474432220, "lat": 12.9330194, "lon": 77.6105953, "tags": {"addr:street": "Tavarekere Main Road", "name": "Inn", "tourism": "hotel"}}, {"type": "node", "id": 1474819129, "lat": 12.9353977, "lon": 77.6090855, "tags": {"addr:street": "Hosur road", "name": "Libra", "tourism": "hotel"}}, {"type": "node", "id": 1485636645, "lat": 12.9572914, "lon": 77.6436022, "tags": {"access": "private", "barrier": "gate", "vehicle": "destination"}}, {"type": "node", "id": 1485636646, "lat": 12.9573752, "lon": 77.6445716}, {"type": "node", "id": 1485636648, "lat": 12.9578649, "lon": 77.6436846}, {"type": "node", "id": 1485636679, "lat": 12.960078, "lon": 77.6477933}, {"type": "node", "id": 1485636706, "lat": 12.9609594, "lon": 77.6480441}, {"type": "node", "id": 1509292090, "lat": 12.9478373, "lon": 77.5970782, "tags": {"name": "Hotel Mayflower", "tourism": "hotel"}}, {"type": "node", "id": 1536592059, "lat": 12.9726288, "lon": 77.6001079}, {"type": "node", "id": 1536592066, "lat": 12.9724282, "lon": 77.5995994}, {"type": "node", "id": 1536592068, "lat": 12.9730978, "lon": 77.5997106}, {"type": "node", "id": 1536592069, "lat": 12.9723296, "lon": 77.6000646}, {"type": "node", "id": 1536592071, "lat": 12.9727061, "lon": 77.5996437}, {"type": "node", "id": 1536592073, "lat": 12.9730703, "lon": 77.6001717}, {"type": "node", "id": 1548828176, "lat": 12.983979, "lon": 77.5846362}, {"type": "node", "id": 1548828177, "lat": 12.9845306, "lon": 77.5853436}, {"type": "node", "id": 1607662968, "lat": 12.9738266, "lon": 77.619964}, {"type": "node", "id": 1607662992, "lat": 12.9739237, "lon": 77.6189882}, {"type": "node", "id": 1613132105, "lat": 12.9568933, "lon": 77.6436942}, {"type": "node", "id": 1613132114, "lat": 12.9573096, "lon": 77.6445279, "tags": {"access": "private", "barrier": "gate", "vehicle": "destination"}}, {"type": "node", "id": 1623992301, "lat": 13.012896, "lon": 77.5547189}, {"type": "node", "id": 1623992338, "lat": 13.0123056, "lon": 77.5554954}, {"type": "node", "id": 1623992439, "lat": 13.0129032, "lon": 77.5554909}, {"type": "node", "id": 1623992502, "lat": 13.0122984, "lon": 77.5547249}, {"type": "node", "id": 1636730958, "lat": 12.9782535, "lon": 77.5799774}, {"type": "node", "id": 1636730971, "lat": 12.9783606, "lon": 77.5800593}, {"type": "node", "id": 1636730987, "lat": 12.9781305, "lon": 77.580055}, {"type": "node", "id": 1636731069, "lat": 12.9782673, "lon": 77.5797565}, {"type": "node", "id": 1636731072, "lat": 12.9780845, "lon": 77.5800401}, {"type": "node", "id": 1636731090, "lat": 12.978139, "lon": 77.5797481}, {"type": "node", "id": 1636731096, "lat": 12.9782891, "lon": 77.5801671}, {"type": "node", "id": 1636731108, "lat": 12.9780931, "lon": 77.5799016}, {"type": "node", "id": 1636731110, "lat": 12.9781293, "lon": 77.579904}, {"type": "node", "id": 1637588134, "lat": 12.9780729, "lon": 77.579383, "tags": {"addr:city": "Be\u1e45ga\u1e37\u016bru", "addr:neighborhood": "G\u0101m\u0310dh\u012bngar", "addr:state": "KA", "email": "goldenresidency@gmail.com", "facebook": "https://www.facebook.com/people/Golden-Residency/100083489050660/", "internet_access": "wlan", "internet_access:fee": "customers", "name": "Golden Residency", "name:es": "Residencia Golden", "name:fr": "R\u00e9sidence Golden", "name:it": "Residenza Golden", "name:pt": "Resid\u00eancia Golden", "phone": "+91 80 4147 6435", "tourism": "hotel"}}, {"type": "node", "id": 1637588143, "lat": 12.9775086, "lon": 77.5793777, "tags": {"name": "Hotel Kanthi Comforts", "tourism": "hotel"}}, {"type": "node", "id": 1652785560, "lat": 12.9654789, "lon": 77.5898062}, {"type": "node", "id": 1652785561, "lat": 12.9654334, "lon": 77.5901013}, {"type": "node", "id": 1653909253, "lat": 12.9656255, "lon": 77.5895554, "tags": {"name": "Hotel Geo", "tourism": "hotel"}}, {"type": "node", "id": 1671637200, "lat": 12.9937551, "lon": 77.5866721}, {"type": "node", "id": 1671637253, "lat": 12.9937668, "lon": 77.5854189}, {"type": "node", "id": 1749472997, "lat": 12.9956838, "lon": 77.597473}, {"type": "node", "id": 1749473000, "lat": 12.9972876, "lon": 77.5985502}, {"type": "node", "id": 1757024875, "lat": 12.9757997, "lon": 77.6203538}, {"type": "node", "id": 1757024876, "lat": 12.9758934, "lon": 77.6210801}, {"type": "node", "id": 1772649601, "lat": 12.9604081, "lon": 77.5709546, "tags": {"name": "Prakash Cafe & Lodge", "tourism": "hotel"}}, {"type": "node", "id": 1786236040, "lat": 12.9684323, "lon": 77.5964096, "tags": {"name": "Villa Lavelle", "tourism": "hotel"}}, {"type": "node", "id": 1798913046, "lat": 12.9717723, "lon": 77.5729725, "tags": {"name": "Ramakrishna Lodge", "tourism": "hotel"}}, {"type": "node", "id": 1808746086, "lat": 12.9747844, "lon": 77.6202416}, {"type": "node", "id": 1808746088, "lat": 12.9748549, "lon": 77.6201837}, {"type": "node", "id": 1808746089, "lat": 12.9748796, "lon": 77.6211536}, {"type": "node", "id": 1837595295, "lat": 12.9948655, "lon": 77.596919}, {"type": "node", "id": 1837595297, "lat": 12.9951204, "lon": 77.5962384}, {"type": "node", "id": 1837595298, "lat": 12.9951916, "lon": 77.5961723}, {"type": "node", "id": 1837595310, "lat": 12.996957, "lon": 77.5959059}, {"type": "node", "id": 1837595311, "lat": 12.9969893, "lon": 77.5961653}, {"type": "node", "id": 1837595315, "lat": 12.9976229, "lon": 77.5987754}, {"type": "node", "id": 1837595318, "lat": 12.998215, "lon": 77.5959877}, {"type": "node", "id": 1837595321, "lat": 12.9986649, "lon": 77.5970995}, {"type": "node", "id": 1838375768, "lat": 12.98982, "lon": 77.5947591}, {"type": "node", "id": 1842489794, "lat": 12.9727746, "lon": 77.6186104}, {"type": "node", "id": 1842489801, "lat": 12.9729827, "lon": 77.6177384}, {"type": "node", "id": 1842489804, "lat": 12.9730314, "lon": 77.6175575}, {"type": "node", "id": 1842489964, "lat": 12.9742716, "lon": 77.6177001}, {"type": "node", "id": 1851701770, "lat": 12.9560897, "lon": 77.6055497, "tags": {"name": "Confident Propos", "tourism": "hotel"}}, {"type": "node", "id": 1851705414, "lat": 12.966478, "lon": 77.5964623}, {"type": "node", "id": 1851705424, "lat": 12.9664833, "lon": 77.59611}, {"type": "node", "id": 1851705428, "lat": 12.966573, "lon": 77.5964638}, {"type": "node", "id": 1851705429, "lat": 12.9665783, "lon": 77.5961115}, {"type": "node", "id": 1866179093, "lat": 12.9066302, "lon": 77.592944, "tags": {"alt_name": "Hotel Hindusthan International", "name": "Emilion HHI Select", "tourism": "hotel"}}, {"type": "node", "id": 1931886476, "lat": 12.9774012, "lon": 77.5758001}, {"type": "node", "id": 1931886479, "lat": 12.9776364, "lon": 77.5757953}, {"type": "node", "id": 1931886481, "lat": 12.9774056, "lon": 77.5760268}, {"type": "node", "id": 1931886487, "lat": 12.9776409, "lon": 77.576022}, {"type": "node", "id": 1931910416, "lat": 12.9813835, "lon": 77.5753478, "tags": {"name": "Hotel Tourist", "tourism": "hotel"}}, {"type": "node", "id": 1947653872, "lat": 12.9846947, "lon": 77.578478}, {"type": "node", "id": 1952715979, "lat": 13.0413259, "lon": 77.5543733}, {"type": "node", "id": 1952715985, "lat": 13.0413311, "lon": 77.5549365}, {"type": "node", "id": 1952716001, "lat": 13.0426271, "lon": 77.5547112}, {"type": "node", "id": 1952716010, "lat": 13.0427408, "lon": 77.5547804}, {"type": "node", "id": 1952716030, "lat": 13.0426428, "lon": 77.5545825}, {"type": "node", "id": 1952716031, "lat": 13.0420314, "lon": 77.5549526}, {"type": "node", "id": 1952716034, "lat": 13.0424338, "lon": 77.555076}, {"type": "node", "id": 1952716036, "lat": 13.0422561, "lon": 77.5549902}, {"type": "node", "id": 1974872457, "lat": 12.9750295, "lon": 77.5703109, "tags": {"addr:city": "Bangalore", "addr:postcode": "560023", "addr:street": "Gubbi Thotadappa Road", "email": "resv@hotelcitycentaur.com", "fax": "+91-80-41419100", "name": "Hotel City Centaur International", "phone": "+91-80-41419191", "tourism": "hotel", "website": "https://www.hotelcitycentaur.com/index.html", "wheelchair": "limited"}}, {"type": "node", "id": 1974878572, "lat": 12.9744293, "lon": 77.5706029, "tags": {"addr:city": "Cottonpet, Bangalore", "addr:housenumber": "2/3", "addr:street": "Cottonpete Main Road", "name": "Sri Krishna Lodge", "phone": "+91-080-41221689", "tourism": "hotel"}}, {"type": "node", "id": 1974885227, "lat": 12.9738994, "lon": 77.5706296, "tags": {"addr:street": "Cottonpete Main Road", "name": "Sri Thirumala Lodge", "tourism": "hotel"}}, {"type": "node", "id": 2016215996, "lat": 12.975607, "lon": 77.5751762, "tags": {"name": "Shree Lodge", "tourism": "hotel"}}, {"type": "node", "id": 2019372526, "lat": 12.9666996, "lon": 77.5961979}, {"type": "node", "id": 2019372528, "lat": 12.9667498, "lon": 77.596194}, {"type": "node", "id": 2019372532, "lat": 12.9669429, "lon": 77.5964439}, {"type": "node", "id": 2019372535, "lat": 12.9667865, "lon": 77.5961912}, {"type": "node", "id": 2025970816, "lat": 12.9948734, "lon": 77.5852312}, {"type": "node", "id": 2034479472, "lat": 12.9894357, "lon": 77.5729477, "tags": {"addr:city": "Seshadripuram, Bangalore", "addr:postcode": "560020", "addr:street": "Subedar Chatram Road", "name": "Hotel Samrat Residency", "phone": "00918023560099, 23560930, 23563726, 23561725, 23468316, 23460822", "tourism": "hotel", "website": "www.samratresidency.co.in"}}, {"type": "node", "id": 2097547120, "lat": 12.979285, "lon": 77.5748279, "tags": {"name": "JP Cordial", "tourism": "hotel"}}, {"type": "node", "id": 2097548805, "lat": 12.9789865, "lon": 77.574935, "tags": {"name": "Rajaprakash", "tourism": "hotel"}}, {"type": "node", "id": 2097549605, "lat": 12.9805241, "lon": 77.5750066, "tags": {"check_date": "2024-02-29", "name": "Ksheera Sagar", "tourism": "hotel"}}, {"type": "node", "id": 2097549792, "lat": 12.979643, "lon": 77.5751455, "tags": {"designation": "General", "name": "Hotel Kapila", "tourism": "hotel"}}, {"type": "node", "id": 2189595249, "lat": 12.9803276, "lon": 77.586451}, {"type": "node", "id": 2189595251, "lat": 12.9805254, "lon": 77.5861039}, {"type": "node", "id": 2189648905, "lat": 12.9718711, "lon": 77.6085975}, {"type": "node", "id": 2189683201, "lat": 12.9721558, "lon": 77.5942907}, {"type": "node", "id": 2190068068, "lat": 12.9666561, "lon": 77.5957764}, {"type": "node", "id": 2190068070, "lat": 12.9666738, "lon": 77.5960181}, {"type": "node", "id": 2190068072, "lat": 12.966687, "lon": 77.5961989}, {"type": "node", "id": 2190068080, "lat": 12.9667553, "lon": 77.5957687}, {"type": "node", "id": 2190068084, "lat": 12.9667727, "lon": 77.5960025}, {"type": "node", "id": 2190068090, "lat": 12.9670324, "lon": 77.5957474}, {"type": "node", "id": 2190068091, "lat": 12.9671844, "lon": 77.5959708}, {"type": "node", "id": 2190068092, "lat": 12.9672036, "lon": 77.5962332}, {"type": "node", "id": 2190068096, "lat": 12.9672925, "lon": 77.5957273}, {"type": "node", "id": 2190068097, "lat": 12.9674504, "lon": 77.5957444}, {"type": "node", "id": 2190068098, "lat": 12.9674846, "lon": 77.5962115}, {"type": "node", "id": 2190068099, "lat": 12.9673904, "lon": 77.5957198}, {"type": "node", "id": 2190068100, "lat": 12.9673925, "lon": 77.5957488}, {"type": "node", "id": 2238856559, "lat": 12.9306091, "lon": 77.5853075, "tags": {"name": "The Royal Comfort", "tourism": "hotel"}}, {"type": "node", "id": 2247443535, "lat": 12.988584, "lon": 77.5474906, "tags": {"name": "Rekha Residency", "tourism": "hotel"}}, {"type": "node", "id": 2247443567, "lat": 12.9857195, "lon": 77.5520611, "tags": {"name": "Shivas", "tourism": "hotel", "wheelchair": "no"}}, {"type": "node", "id": 2247460567, "lat": 12.9870577, "lon": 77.572403, "tags": {"name": "Hotel Blue Diamond", "tourism": "hotel"}}, {"type": "node", "id": 2249046277, "lat": 12.9881972, "lon": 77.5494003, "tags": {"name": "Suvali", "tourism": "hotel"}}, {"type": "node", "id": 2249047641, "lat": 12.9959438, "lon": 77.5548935, "tags": {"name": "Cafe Coffee Day", "name:kn": "\u0c95\u0cab\u0cc6 \u0c95\u0cbe\u0cab\u0cbf \u0ca1\u0cc7", "tourism": "hotel"}}, {"type": "node", "id": 2249048504, "lat": 12.9917517, "lon": 77.5576615, "tags": {"name": "Mallika Residency", "tourism": "hotel"}}, {"type": "node", "id": 2255802680, "lat": 12.9462042, "lon": 77.5735669}, {"type": "node", "id": 2255802681, "lat": 12.9462018, "lon": 77.5732933}, {"type": "node", "id": 2255802682, "lat": 12.946094, "lon": 77.5735679}, {"type": "node", "id": 2255802683, "lat": 12.9460917, "lon": 77.5732943}, {"type": "node", "id": 2261285021, "lat": 12.987225, "lon": 77.5397658, "tags": {"name": "Kashyap Lodge", "tourism": "hotel"}}, {"type": "node", "id": 2268525584, "lat": 12.9567958, "lon": 77.6441037}, {"type": "node", "id": 2344648079, "lat": 12.9633735, "lon": 77.5898343, "tags": {"name": "Hotel Vintage Residency", "tourism": "hotel"}}, {"type": "node", "id": 2389701675, "lat": 12.9166586, "lon": 77.6724226}, {"type": "node", "id": 2389701682, "lat": 12.9165628, "lon": 77.6725784}, {"type": "node", "id": 2489009760, "lat": 13.0146662, "lon": 77.5542209}, {"type": "node", "id": 2489009761, "lat": 13.0146674, "lon": 77.5543341}, {"type": "node", "id": 2489009762, "lat": 13.0140175, "lon": 77.5543615}, {"type": "node", "id": 2489009763, "lat": 13.0140125, "lon": 77.5542329}, {"type": "node", "id": 2492263972, "lat": 13.0200701, "lon": 77.5544961, "tags": {"name": "Hotel Grand Bee", "tourism": "hotel", "wheelchair": "no"}}, {"type": "node", "id": 2496916038, "lat": 12.9796492, "lon": 77.6070313, "tags": {"addr:city": "Bangalore", "addr:housename": "Safina Plaza", "addr:street": "Main Guard Cross Road", "name": "Hotel Safina", "tourism": "hotel"}}, {"type": "node", "id": 2513569166, "lat": 12.9786599, "lon": 77.5740904, "tags": {"addr:city": "Gandhi Nagar, Bangalore", "addr:street": "4th Cross", "name": "Rajath Lodge", "tourism": "hotel", "wheelchair": "yes"}}, {"type": "node", "id": 2513569256, "lat": 12.9772171, "lon": 77.5766278, "tags": {"addr:city": "Gandhi Nagar, Bangalore", "addr:housename": "Opp Gubbi Veeranna Nataka", "addr:street": "2nd Cross Road", "name": "Sajjan Lodge", "tourism": "hotel"}}, {"type": "node", "id": 2518837260, "lat": 12.9290137, "lon": 77.6276776, "tags": {"name": "Grand Mercure", "phone": "080 45121212", "tourism": "hotel"}}, {"type": "node", "id": 2536347654, "lat": 12.9937001, "lon": 77.571322, "tags": {"name": "The Basil", "tourism": "hotel"}}, {"type": "node", "id": 2549445327, "lat": 13.0583335, "lon": 77.585787}, {"type": "node", "id": 2549445328, "lat": 13.0582516, "lon": 77.5862944}, {"type": "node", "id": 2550216927, "lat": 12.9621219, "lon": 77.6492356, "tags": {"name": "Royal Shades", "tourism": "hotel"}}, {"type": "node", "id": 2558406816, "lat": 13.0582963, "lon": 77.5860138}, {"type": "node", "id": 2558406822, "lat": 13.0585161, "lon": 77.5863497}, {"type": "node", "id": 2577099281, "lat": 12.9797725, "lon": 77.5747917, "tags": {"name": "Sandhya Lodge", "tourism": "hotel"}}, {"type": "node", "id": 2595576199, "lat": 12.9770921, "lon": 77.5795669, "tags": {"name": "Hotel Grand Inn", "name:kn": "\u0c97\u0ccd\u0cb0\u0cbe\u0c82\u0ca1\u0ccd \u0c87\u0ca8\u0ccd", "tourism": "hotel"}}, {"type": "node", "id": 2613279609, "lat": 13.0209593, "lon": 77.5844241, "tags": {"name": "Hotel Check Inn", "tourism": "hotel"}}, {"type": "node", "id": 2615897555, "lat": 12.8900044, "lon": 77.6398044, "tags": {"name": "Ekaa", "tourism": "hotel", "website": "www.hotelekaa.com"}}, {"type": "node", "id": 2627097325, "lat": 13.0388864, "lon": 77.6249175, "tags": {"brand": "Treebo", "check_date": "2025-06-14", "name": "Hotel Raj Elegance", "tourism": "hotel"}}, {"type": "node", "id": 2642013546, "lat": 13.0364837, "lon": 77.5895892, "tags": {"addr:city": "Bengaluru", "addr:country": "IN", "addr:housenumber": "24", "addr:postcode": "560024", "addr:street": "Bellary Road", "addr:suburb": "Hebbal", "email": "info@theroyalesenate.com", "name": "The Royal Senate", "tourism": "hotel", "website": "http://theroyalsenate.com"}}, {"type": "node", "id": 2677285859, "lat": 12.9072448, "lon": 77.5984279}, {"type": "node", "id": 2677285862, "lat": 12.9072637, "lon": 77.5986694}, {"type": "node", "id": 2677285865, "lat": 12.9075575, "lon": 77.5984021}, {"type": "node", "id": 2677285868, "lat": 12.9075764, "lon": 77.5986436}, {"type": "node", "id": 2769186086, "lat": 12.9672916, "lon": 77.593568}, {"type": "node", "id": 2769186088, "lat": 12.9668022, "lon": 77.5937663}, {"type": "node", "id": 2769186093, "lat": 12.9674661, "lon": 77.5939741}, {"type": "node", "id": 2769186096, "lat": 12.967578, "lon": 77.5936157}, {"type": "node", "id": 2769186098, "lat": 12.9673569, "lon": 77.5941192}, {"type": "node", "id": 2769186099, "lat": 12.9667688, "lon": 77.5933937}, {"type": "node", "id": 2771736630, "lat": 12.9801755, "lon": 77.6049823, "tags": {"name": "The Monarch Luxor Hotel", "tourism": "hotel"}}, {"type": "node", "id": 2911691004, "lat": 13.0174207, "lon": 77.5916073, "tags": {"name": "Coral Tree by Goldfinch", "tourism": "hotel"}}, {"type": "node", "id": 3141449631, "lat": 12.9245196, "lon": 77.666767}, {"type": "node", "id": 3141449632, "lat": 12.9243978, "lon": 77.6667754}, {"type": "node", "id": 3141449633, "lat": 12.9244084, "lon": 77.6669362}, {"type": "node", "id": 3141449634, "lat": 12.9245301, "lon": 77.6669278}, {"type": "node", "id": 3173482714, "lat": 13.0108784, "lon": 77.5788998, "tags": {"addr:city": "Bangalore", "addr:housenumber": "137-7", "addr:postcode": "560080", "addr:street": "9th Main Road, 6th A Cross Street, Sadashivnagar", "name": "Chevron Orchards Hotel", "operator": "The Chevron Hotels", "tourism": "hotel", "website": "https://www.thechevronhotels.com/orchards/"}}, {"type": "node", "id": 3277990508, "lat": 12.9731115, "lon": 77.5701532, "tags": {"addr:street": "Old Taluk Cutchery Road", "name": "Signature Inn", "tourism": "hotel"}}, {"type": "node", "id": 3298961003, "lat": 12.9599425, "lon": 77.6489414}, {"type": "node", "id": 3323783324, "lat": 12.9829115, "lon": 77.5962207}, {"type": "node", "id": 3323783326, "lat": 12.9826705, "lon": 77.5963253}, {"type": "node", "id": 3323783327, "lat": 12.9827297, "lon": 77.5961544}, {"type": "node", "id": 3323783331, "lat": 12.9835023, "lon": 77.5935801}, {"type": "node", "id": 3323783336, "lat": 12.9828522, "lon": 77.5963917}, {"type": "node", "id": 3323783337, "lat": 12.9836047, "lon": 77.5932733}, {"type": "node", "id": 3323783342, "lat": 12.9837158, "lon": 77.5934211}, {"type": "node", "id": 3323783343, "lat": 12.9836459, "lon": 77.5936306}, {"type": "node", "id": 3323783351, "lat": 12.9838389, "lon": 77.5934643}, {"type": "node", "id": 3323783353, "lat": 12.9838714, "lon": 77.593367}, {"type": "node", "id": 3323824643, "lat": 12.9825833, "lon": 77.5943028}, {"type": "node", "id": 3323824663, "lat": 12.9821764, "lon": 77.5943304}, {"type": "node", "id": 3340457187, "lat": 12.9531464, "lon": 77.652966, "tags": {"name": "Status", "tourism": "hotel"}}, {"type": "node", "id": 3343584522, "lat": 12.9749544, "lon": 77.603301}, {"type": "node", "id": 3343584529, "lat": 12.9750206, "lon": 77.6030367}, {"type": "node", "id": 3343584531, "lat": 12.9750688, "lon": 77.6032451}, {"type": "node", "id": 3343584532, "lat": 12.9751147, "lon": 77.6030615}, {"type": "node", "id": 3343584533, "lat": 12.9750947, "lon": 77.603338}, {"type": "node", "id": 3343584534, "lat": 12.9751149, "lon": 77.6032573}, {"type": "node", "id": 3352558447, "lat": 12.953483, "lon": 77.639703}, {"type": "node", "id": 3358874233, "lat": 12.969106, "lon": 77.6003385}, {"type": "node", "id": 3358874247, "lat": 12.9691805, "lon": 77.5999555}, {"type": "node", "id": 3358874252, "lat": 12.9692635, "lon": 77.6003707}, {"type": "node", "id": 3358874259, "lat": 12.969338, "lon": 77.5999877}, {"type": "node", "id": 3369898735, "lat": 12.9786, "lon": 77.6369051}, {"type": "node", "id": 3369898736, "lat": 12.9786011, "lon": 77.6370704}, {"type": "node", "id": 3369898751, "lat": 12.9786553, "lon": 77.6368796}, {"type": "node", "id": 3369898752, "lat": 12.9786554, "lon": 77.6369047}, {"type": "node", "id": 3369898753, "lat": 12.9786964, "lon": 77.6368793}, {"type": "node", "id": 3369898754, "lat": 12.9786966, "lon": 77.6369044}, {"type": "node", "id": 3369898757, "lat": 12.9787463, "lon": 77.6369041}, {"type": "node", "id": 3369898758, "lat": 12.9787473, "lon": 77.6370694}, {"type": "node", "id": 3370028971, "lat": 12.9783904, "lon": 77.6373978, "tags": {"name": "Shalimar", "tourism": "hotel"}}, {"type": "node", "id": 3370028975, "lat": 12.9786767, "lon": 77.6368794, "tags": {"entrance": "main"}}, {"type": "node", "id": 3374298878, "lat": 12.9787061, "lon": 77.6369437, "tags": {"name": "The Himalayan Inn", "tourism": "hotel"}}, {"type": "node", "id": 3383983589, "lat": 12.9791968, "lon": 77.6376018}, {"type": "node", "id": 3383983590, "lat": 12.9792, "lon": 77.6378008}, {"type": "node", "id": 3383983592, "lat": 12.9793293, "lon": 77.6375996}, {"type": "node", "id": 3383984494, "lat": 12.9793325, "lon": 77.6377986}, {"type": "node", "id": 3384460248, "lat": 12.9728174, "lon": 77.5952576}, {"type": "node", "id": 3385872979, "lat": 12.9575139, "lon": 77.6447065}, {"type": "node", "id": 3385872980, "lat": 12.9576118, "lon": 77.6442381}, {"type": "node", "id": 3385872981, "lat": 12.9577497, "lon": 77.6442834}, {"type": "node", "id": 3386077021, "lat": 12.9654022, "lon": 77.5991222}, {"type": "node", "id": 3386077025, "lat": 12.966392, "lon": 77.5986167}, {"type": "node", "id": 3386077035, "lat": 12.9657445, "lon": 77.599154}, {"type": "node", "id": 3386077056, "lat": 12.9652151, "lon": 77.5989263}, {"type": "node", "id": 3386077064, "lat": 12.9660443, "lon": 77.5981904}, {"type": "node", "id": 3386077073, "lat": 12.965237, "lon": 77.5990898}, {"type": "node", "id": 3386128910, "lat": 12.9682933, "lon": 77.6011177}, {"type": "node", "id": 3386128922, "lat": 12.9669701, "lon": 77.6018023}, {"type": "node", "id": 3386128951, "lat": 12.9674073, "lon": 77.6025486}, {"type": "node", "id": 3389094351, "lat": 12.9830426, "lon": 77.6401968, "tags": {"addr:housenumber": "648B", "name": "Regenta Inn", "tourism": "hotel", "website": "https://www.royalorchidhotels.com/regenta-inn-indiranagar-bangalore/overview"}}, {"type": "node", "id": 3395155126, "lat": 12.9710736, "lon": 77.600577}, {"type": "node", "id": 3395155248, "lat": 12.9713451, "lon": 77.6006478}, {"type": "node", "id": 3395155289, "lat": 12.9710241, "lon": 77.600777}, {"type": "node", "id": 3395155292, "lat": 12.9712956, "lon": 77.6008478}, {"type": "node", "id": 3400223197, "lat": 12.9256581, "lon": 77.6006309, "tags": {"name": "Swathi hotel", "tourism": "hotel"}}, {"type": "node", "id": 3404808722, "lat": 12.9690068, "lon": 77.6141099}, {"type": "node", "id": 3404808723, "lat": 12.9691598, "lon": 77.6143896}, {"type": "node", "id": 3404808724, "lat": 12.9688672, "lon": 77.61455}, {"type": "node", "id": 3404808725, "lat": 12.9688599, "lon": 77.6142043}, {"type": "node", "id": 3424841462, "lat": 12.9102961, "lon": 77.6063748, "tags": {"name": "Aahar Bhavan - Veg Hotel", "tourism": "hotel"}}, {"type": "node", "id": 3504832473, "lat": 12.9707561, "lon": 77.6470618}, {"type": "node", "id": 3504832474, "lat": 12.9709055, "lon": 77.6470628}, {"type": "node", "id": 3504832475, "lat": 12.9709045, "lon": 77.6472237}, {"type": "node", "id": 3504832476, "lat": 12.9707551, "lon": 77.6472227}, {"type": "node", "id": 3524959852, "lat": 12.9430746, "lon": 77.5847159}, {"type": "node", "id": 3524959854, "lat": 12.9430704, "lon": 77.5850519}, {"type": "node", "id": 3524959868, "lat": 12.9432009, "lon": 77.5850536}, {"type": "node", "id": 3525162392, "lat": 12.9655765, "lon": 77.5901245}, {"type": "node", "id": 3525179939, "lat": 12.9393646, "lon": 77.6285719}, {"type": "node", "id": 3525179955, "lat": 12.9393976, "lon": 77.6287741}, {"type": "node", "id": 3525179991, "lat": 12.9395487, "lon": 77.6287481}, {"type": "node", "id": 3525180221, "lat": 12.9403018, "lon": 77.6269551}, {"type": "node", "id": 3525180234, "lat": 12.9403314, "lon": 77.6270356}, {"type": "node", "id": 3525180245, "lat": 12.9404332, "lon": 77.6269044}, {"type": "node", "id": 3525180255, "lat": 12.9404627, "lon": 77.6269848}, {"type": "node", "id": 3525622601, "lat": 12.9795437, "lon": 77.6039659}, {"type": "node", "id": 3525622603, "lat": 12.9796078, "lon": 77.6036948}, {"type": "node", "id": 3525622604, "lat": 12.9796469, "lon": 77.6039916}, {"type": "node", "id": 3525622605, "lat": 12.9797198, "lon": 77.6037274}, {"type": "node", "id": 3525639562, "lat": 12.9521913, "lon": 77.6397261}, {"type": "node", "id": 3525639564, "lat": 12.9522315, "lon": 77.6396542}, {"type": "node", "id": 3525639568, "lat": 12.9523284, "lon": 77.6399732}, {"type": "node", "id": 3525639572, "lat": 12.9523983, "lon": 77.6398483}, {"type": "node", "id": 3525639577, "lat": 12.9524557, "lon": 77.6400483}, {"type": "node", "id": 3525639582, "lat": 12.952566, "lon": 77.6398514}, {"type": "node", "id": 3527664537, "lat": 13.0589706, "lon": 77.5864365}, {"type": "node", "id": 3527664561, "lat": 13.0590952, "lon": 77.5859333}, {"type": "node", "id": 3530334528, "lat": 13.0236032, "lon": 77.6400068}, {"type": "node", "id": 3530334530, "lat": 13.0236146, "lon": 77.6398685}, {"type": "node", "id": 3530334582, "lat": 13.023691, "lon": 77.6400144}, {"type": "node", "id": 3530334584, "lat": 13.0237024, "lon": 77.6398761}, {"type": "node", "id": 3530335390, "lat": 13.0242719, "lon": 77.642055}, {"type": "node", "id": 3530335401, "lat": 13.0243193, "lon": 77.6419595}, {"type": "node", "id": 3530335426, "lat": 13.0244411, "lon": 77.6421435}, {"type": "node", "id": 3530335441, "lat": 13.0244885, "lon": 77.6420479}, {"type": "node", "id": 3530346619, "lat": 13.0245352, "lon": 77.5471636}, {"type": "node", "id": 3530347312, "lat": 13.0269675, "lon": 77.5438784}, {"type": "node", "id": 3530347318, "lat": 13.0270918, "lon": 77.5436757}, {"type": "node", "id": 3530347339, "lat": 13.0272312, "lon": 77.5440487}, {"type": "node", "id": 3530347348, "lat": 13.0273555, "lon": 77.543846}, {"type": "node", "id": 3530430881, "lat": 12.9574956, "lon": 77.6447377}, {"type": "node", "id": 3530430887, "lat": 12.9579287, "lon": 77.6437255}, {"type": "node", "id": 3530430888, "lat": 12.9580651, "lon": 77.6438128}, {"type": "node", "id": 3530437529, "lat": 12.9577572, "lon": 77.6443143}, {"type": "node", "id": 3530465756, "lat": 12.9576706, "lon": 77.6442574}, {"type": "node", "id": 3532299181, "lat": 13.0232268, "lon": 77.5628067}, {"type": "node", "id": 3532299184, "lat": 13.0232271, "lon": 77.5626871}, {"type": "node", "id": 3532299253, "lat": 13.023396, "lon": 77.5628092}, {"type": "node", "id": 3532299255, "lat": 13.0233997, "lon": 77.5626929}, {"type": "node", "id": 3532544324, "lat": 13.0178089, "lon": 77.6521004}, {"type": "node", "id": 3532544334, "lat": 13.0178599, "lon": 77.6522163}, {"type": "node", "id": 3532544344, "lat": 13.0179918, "lon": 77.6520157}, {"type": "node", "id": 3532544349, "lat": 13.0180427, "lon": 77.6521316}, {"type": "node", "id": 3532895584, "lat": 12.9858557, "lon": 77.5953333}, {"type": "node", "id": 3532895587, "lat": 12.9859357, "lon": 77.5952188}, {"type": "node", "id": 3532895591, "lat": 12.9861333, "lon": 77.5955377}, {"type": "node", "id": 3532895695, "lat": 12.9862134, "lon": 77.5954232}, {"type": "node", "id": 3534753688, "lat": 12.9839002, "lon": 77.5779464}, {"type": "node", "id": 3534754404, "lat": 12.984005, "lon": 77.5780941}, {"type": "node", "id": 3534754429, "lat": 12.9840789, "lon": 77.5778128}, {"type": "node", "id": 3534754454, "lat": 12.9841838, "lon": 77.5779605}, {"type": "node", "id": 3535276226, "lat": 12.9239211, "lon": 77.6545177}, {"type": "node", "id": 3535276230, "lat": 12.9239309, "lon": 77.6544515}, {"type": "node", "id": 3535276268, "lat": 12.9240417, "lon": 77.6545363}, {"type": "node", "id": 3535276271, "lat": 12.9240514, "lon": 77.6544701}, {"type": "node", "id": 3535448357, "lat": 12.9739749, "lon": 77.5756236}, {"type": "node", "id": 3535448362, "lat": 12.9740058, "lon": 77.5754773}, {"type": "node", "id": 3535448387, "lat": 12.9742293, "lon": 77.5756803}, {"type": "node", "id": 3535448389, "lat": 12.9742602, "lon": 77.575534}, {"type": "node", "id": 3535449779, "lat": 12.9769571, "lon": 77.5787097}, {"type": "node", "id": 3535449783, "lat": 12.9769623, "lon": 77.5785501}, {"type": "node", "id": 3535450133, "lat": 12.9771846, "lon": 77.5787175}, {"type": "node", "id": 3535450137, "lat": 12.9771899, "lon": 77.578558}, {"type": "node", "id": 3535630526, "lat": 12.9786996, "lon": 77.5776755}, {"type": "node", "id": 3535630528, "lat": 12.9787064, "lon": 77.5775578}, {"type": "node", "id": 3535630584, "lat": 12.9788924, "lon": 77.5776873}, {"type": "node", "id": 3535630586, "lat": 12.9788992, "lon": 77.5775696}, {"type": "node", "id": 3535630766, "lat": 12.9789413, "lon": 77.5639168}, {"type": "node", "id": 3535630770, "lat": 12.9789726, "lon": 77.5642589}, {"type": "node", "id": 3535631005, "lat": 12.9790894, "lon": 77.5639025}, {"type": "node", "id": 3535631013, "lat": 12.9791207, "lon": 77.5642447}, {"type": "node", "id": 3537816356, "lat": 12.9368971, "lon": 77.5805275}, {"type": "node", "id": 3537816357, "lat": 12.9369058, "lon": 77.5807209}, {"type": "node", "id": 3537816703, "lat": 12.9374783, "lon": 77.5805187}, {"type": "node", "id": 3537816704, "lat": 12.9375001, "lon": 77.5807269}, {"type": "node", "id": 3544428420, "lat": 12.9178244, "lon": 77.6240536}, {"type": "node", "id": 3544428421, "lat": 12.9178298, "lon": 77.624192}, {"type": "node", "id": 3544428422, "lat": 12.9180281, "lon": 77.6240454}, {"type": "node", "id": 3544428424, "lat": 12.9180334, "lon": 77.6241838}, {"type": "node", "id": 3553063539, "lat": 12.9853422, "lon": 77.5792984}, {"type": "node", "id": 3553063540, "lat": 12.9854131, "lon": 77.5791571}, {"type": "node", "id": 3553063541, "lat": 12.9855202, "lon": 77.5793925}, {"type": "node", "id": 3553063543, "lat": 12.9855911, "lon": 77.5792511}, {"type": "node", "id": 3555067091, "lat": 12.9007997, "lon": 77.6322378}, {"type": "node", "id": 3555067092, "lat": 12.9006711, "lon": 77.6322884}, {"type": "node", "id": 3555068993, "lat": 12.9005091, "lon": 77.6318555}, {"type": "node", "id": 3555068994, "lat": 12.9006725, "lon": 77.6317911}, {"type": "node", "id": 3563098273, "lat": 12.9651008, "lon": 77.6020405}, {"type": "node", "id": 3563098274, "lat": 12.9651228, "lon": 77.601904}, {"type": "node", "id": 3563098275, "lat": 12.9653814, "lon": 77.6020881}, {"type": "node", "id": 3563098276, "lat": 12.9654034, "lon": 77.6019515}, {"type": "node", "id": 3579617921, "lat": 12.9845542, "lon": 77.5784082}, {"type": "node", "id": 3579617924, "lat": 12.9846556, "lon": 77.5781932}, {"type": "node", "id": 3579617925, "lat": 12.9848426, "lon": 77.5785514}, {"type": "node", "id": 3579617927, "lat": 12.984944, "lon": 77.5783364}, {"type": "node", "id": 3599854445, "lat": 12.964437, "lon": 77.5950567}, {"type": "node", "id": 3599854462, "lat": 12.9645082, "lon": 77.594692}, {"type": "node", "id": 3599854469, "lat": 12.9646162, "lon": 77.5950935}, {"type": "node", "id": 3599854470, "lat": 12.9646873, "lon": 77.5947288}, {"type": "node", "id": 3611815582, "lat": 12.9344183, "lon": 77.626046, "tags": {"addr:city": "Bengaluru", "addr:housenumber": "8", "addr:postcode": "560034", "addr:street": "8th Main, 4th Block, Koramangala", "name": "Mango Hotels", "phone": "+918060009696", "tourism": "hotel"}}, {"type": "node", "id": 3618097094, "lat": 12.979241, "lon": 77.637434, "tags": {"name": "City Centre Residency", "tourism": "hotel"}}, {"type": "node", "id": 3667329364, "lat": 12.9704558, "lon": 77.6073052}, {"type": "node", "id": 3710165701, "lat": 12.9474456, "lon": 77.5987375, "tags": {"name": "Sahana hotel", "tourism": "hotel"}}, {"type": "node", "id": 3725710405, "lat": 12.962198, "lon": 77.6419389, "tags": {"name": "Nandhana Hometel", "tourism": "hotel"}}, {"type": "node", "id": 3727147614, "lat": 12.9666575, "lon": 77.6412198, "tags": {"name": "Bloom Hotel", "tourism": "hotel"}}, {"type": "node", "id": 3760637874, "lat": 12.9759033, "lon": 77.6022279, "tags": {"name": "Sri Lakshmi Comforts", "tourism": "hotel"}}, {"type": "node", "id": 3785874885, "lat": 12.9748638, "lon": 77.6151846}, {"type": "node", "id": 3785874886, "lat": 12.9747997, "lon": 77.6153718}, {"type": "node", "id": 3785874887, "lat": 12.9751671, "lon": 77.6154898}, {"type": "node", "id": 3785874888, "lat": 12.9752321, "lon": 77.6153045}, {"type": "node", "id": 3785874890, "lat": 12.9751004, "lon": 77.6152653}, {"type": "node", "id": 3785874891, "lat": 12.9749326, "lon": 77.6152081}, {"type": "node", "id": 3815203595, "lat": 12.9726356, "lon": 77.6078023}, {"type": "node", "id": 3815203596, "lat": 12.9727018, "lon": 77.6079204}, {"type": "node", "id": 3815203597, "lat": 12.9728583, "lon": 77.6079301}, {"type": "node", "id": 3815203598, "lat": 12.9728766, "lon": 77.6080108}, {"type": "node", "id": 3815203599, "lat": 12.9729775, "lon": 77.6079865}, {"type": "node", "id": 3815203600, "lat": 12.9729445, "lon": 77.6078145}, {"type": "node", "id": 3851862908, "lat": 12.9705826, "lon": 77.6458859, "tags": {"addr:street": "12th Main Road", "level": "0;1;2", "name": "Upar Hotels", "tourism": "hotel"}}, {"type": "node", "id": 3852083745, "lat": 12.9660577, "lon": 77.5948439}, {"type": "node", "id": 3852083746, "lat": 12.9662182, "lon": 77.5949397}, {"type": "node", "id": 3852083749, "lat": 12.9662572, "lon": 77.5949681}, {"type": "node", "id": 3852083750, "lat": 12.9662776, "lon": 77.594982}, {"type": "node", "id": 3852083751, "lat": 12.9663127, "lon": 77.5949281}, {"type": "node", "id": 3852083752, "lat": 12.9662976, "lon": 77.5949178}, {"type": "node", "id": 3852083753, "lat": 12.9663668, "lon": 77.5948117}, {"type": "node", "id": 3852083754, "lat": 12.9662767, "lon": 77.5947498}, {"type": "node", "id": 3852083755, "lat": 12.9662524, "lon": 77.594787}, {"type": "node", "id": 3852083756, "lat": 12.9661897, "lon": 77.5947439}, {"type": "node", "id": 3852087157, "lat": 12.9661764, "lon": 77.5947643}, {"type": "node", "id": 3852087158, "lat": 12.9661319, "lon": 77.5947337}, {"type": "node", "id": 3883857999, "lat": 12.9748475, "lon": 77.6387102}, {"type": "node", "id": 3883858000, "lat": 12.9748518, "lon": 77.638841}, {"type": "node", "id": 3883858002, "lat": 12.9749719, "lon": 77.638706}, {"type": "node", "id": 3883858003, "lat": 12.9749762, "lon": 77.6388368}, {"type": "node", "id": 3883874690, "lat": 12.9748487, "lon": 77.6387443}, {"type": "node", "id": 3884267693, "lat": 12.9749128, "lon": 77.638708, "tags": {"entrance": "main"}}, {"type": "node", "id": 3959946664, "lat": 12.9707119, "lon": 77.6072217, "tags": {"internet_access": "wlan", "internet_access:fee": "no", "name": "Iris Business Hotel", "tourism": "hotel"}}, {"type": "node", "id": 3995056439, "lat": 12.9911278, "lon": 77.5800426}, {"type": "node", "id": 4102048406, "lat": 12.9790044, "lon": 77.6421218, "tags": {"tourism": "hotel"}}, {"type": "node", "id": 4113497259, "lat": 12.917055, "lon": 77.6728258}, {"type": "node", "id": 4122459955, "lat": 12.9691128, "lon": 77.6415527, "tags": {"addr:street": "100 Feet Road", "name": "Bloomrooms", "tourism": "hotel"}}, {"type": "node", "id": 4127937388, "lat": 12.9961751, "lon": 77.5959984}, {"type": "node", "id": 4158101202, "lat": 12.917697, "lon": 77.6154889, "tags": {"tourism": "hotel"}}, {"type": "node", "id": 4209231273, "lat": 12.9869043, "lon": 77.6170727}, {"type": "node", "id": 4209231279, "lat": 12.9872307, "lon": 77.6172883}, {"type": "node", "id": 4209231281, "lat": 12.9872833, "lon": 77.6164715}, {"type": "node", "id": 4209231286, "lat": 12.9876092, "lon": 77.6166878}, {"type": "node", "id": 4243919621, "lat": 12.9333545, "lon": 77.5350149, "tags": {"name": "PES South Indian Mess", "tourism": "hotel"}}, {"type": "node", "id": 4307596343, "lat": 12.9671986, "lon": 77.6066888, "tags": {"name": "Stylotel", "tourism": "hotel"}}, {"type": "node", "id": 4311239090, "lat": 12.9229815, "lon": 77.5894385, "tags": {"addr:street": "18th Main Road", "internet_access": "wlan", "name": "Pratik Comforts", "tourism": "hotel"}}, {"type": "node", "id": 4316705595, "lat": 13.0109804, "lon": 77.5068574, "tags": {"name": "Shri Rama Hotel", "tourism": "hotel"}}, {"type": "node", "id": 4324604192, "lat": 12.9095608, "lon": 77.6043781, "tags": {"addr:housenumber": "#64 & 64A", "addr:street": "3rd Main Road 18th Cross Road", "internet_access": "wlan", "name": "Sri Sai Bala Ji PG", "tourism": "hotel"}}, {"type": "node", "id": 4326803490, "lat": 13.0004913, "lon": 77.5417024, "tags": {"internet_access": "wlan", "name": "Home", "tourism": "hotel"}}, {"type": "node", "id": 4331934190, "lat": 13.021693, "lon": 77.6404039, "tags": {"name": "Barbecue Nation", "tourism": "hotel"}}, {"type": "node", "id": 4337897246, "lat": 12.9641301, "lon": 77.570664, "tags": {"description": "24 hours rent", "name": "Vardhaman Paradise", "tourism": "hotel"}}, {"type": "node", "id": 4353477851, "lat": 12.9914655, "lon": 77.5884667}, {"type": "node", "id": 4353477853, "lat": 12.9915452, "lon": 77.5878176}, {"type": "node", "id": 4353477864, "lat": 12.9920881, "lon": 77.5878954}, {"type": "node", "id": 4353477876, "lat": 12.9925365, "lon": 77.5879424}, {"type": "node", "id": 4353478719, "lat": 12.9938125, "lon": 77.5862324}, {"type": "node", "id": 4353478736, "lat": 12.9944789, "lon": 77.5861278}, {"type": "node", "id": 4353493473, "lat": 12.9870501, "lon": 77.5837866, "tags": {"access": "private", "barrier": "gate", "name": "Taj West End - Back Gate"}}, {"type": "node", "id": 4353494044, "lat": 12.9925168, "lon": 77.5807473}, {"type": "node", "id": 4386500192, "lat": 13.0243972, "lon": 77.6032595, "tags": {"name": "Sree Guru Cool Joint", "tourism": "hotel"}}, {"type": "node", "id": 4386500201, "lat": 13.0272339, "lon": 77.60426, "tags": {"name": "A1 Ambur Biryani", "tourism": "hotel"}}, {"type": "node", "id": 4386506592, "lat": 13.0249623, "lon": 77.6034912, "tags": {"name": "Sri Manjunatha Fast Food Hotel", "tourism": "hotel"}}, {"type": "node", "id": 4386507390, "lat": 13.0270211, "lon": 77.6041517, "tags": {"name": "Sri Kampli Someshwara Tiffin Center", "tourism": "hotel"}}, {"type": "node", "id": 4445076391, "lat": 12.9233121, "lon": 77.664167, "tags": {"addr:city": "Bengaluru", "addr:postcode": "560102", "addr:street": "Sarjapur Main Rd, Iblur Village, Bellandur", "name": "Bavitha", "name:kn": "\u0cad\u0cb5\u0cbf\u0ca4\u0cbe", "tourism": "hotel"}}, {"type": "node", "id": 4445113821, "lat": 12.9466623, "lon": 77.6476746, "tags": {"addr:city": "bengaluru", "addr:housenumber": "13", "addr:postcode": "560037", "addr:street": "Vasvani Layout, Challaghatta Road, Next to Embassy Golf Link Business Park, Behind Hilton Hotel, Domlur", "name": "Dass Suites", "phone": "080 4091 8525", "tourism": "hotel", "website": "dasssuites.com"}}, {"type": "node", "id": 4445116252, "lat": 12.9464234, "lon": 77.6478264, "tags": {"addr:city": "bengaluru", "addr:housenumber": "10/3", "addr:postcode": "560017", "addr:street": ", Embassy Golf Links Road, Embassy Golf Links Business Park, Domlur", "name": "Synergy Suites", "tourism": "hotel"}}, {"type": "node", "id": 4445121884, "lat": 12.946457, "lon": 77.6492864, "tags": {"addr:city": "bengaluru", "addr:postcode": "560017", "addr:street": "Challaghatta junction, Challaghatt", "name": "Gardenia Suites Golf Links", "tourism": "hotel"}}, {"type": "node", "id": 4445139961, "lat": 12.9450094, "lon": 77.6492092, "tags": {"addr:city": "bengaluru", "addr:postcode": "560017", "addr:street": "Challaghatta Jct Rd, Challaghatta,", "name": "Shri Balaji Andra Style Mess", "tourism": "hotel"}}, {"type": "node", "id": 4446767445, "lat": 12.9233778, "lon": 77.6715779}, {"type": "node", "id": 4446767446, "lat": 12.9234516, "lon": 77.6717329}, {"type": "node", "id": 4446767452, "lat": 12.9230665, "lon": 77.6717087}, {"type": "node", "id": 4446767454, "lat": 12.92308, "lon": 77.6715503}, {"type": "node", "id": 4446983553, "lat": 12.9213347, "lon": 77.66384, "tags": {"addr:city": "Bengaluru", "addr:housenumber": "39/14", "addr:postcode": "560102", "addr:street": "5th Cross, Below Iblur Flyover, Sarjapur Main Road,, Agara Post", "name": "Hotel Enzo International", "phone": "+91 73539 49999", "tourism": "hotel", "website": "https://www.hotelenzo.in/"}}, {"type": "node", "id": 4446986266, "lat": 12.9217521, "lon": 77.6638083, "tags": {"addr:city": "Bengaluru", "addr:housenumber": "39/13", "addr:postcode": "560102", "addr:street": "5th Cross, Near Ibblur Bus Stop, Outer Ring Rd, Agara Village, Sector 4, HSR Layout", "name": "Hotel IRA Residency", "phone": "080 2572 7656", "tourism": "hotel", "website": "https://www.iraresidency.com/"}}, {"type": "node", "id": 4447075647, "lat": 12.9457742, "lon": 77.6491278, "tags": {"addr:city": "bengaluru", "addr:postcode": "560037", "addr:street": "Challaghatta", "name": "Shri Nidhi Sagar", "tourism": "hotel"}}, {"type": "node", "id": 4447297542, "lat": 13.0230447, "lon": 77.6473827, "tags": {"addr:city": "Bangalore", "addr:housenumber": "5, AC 921", "addr:postcode": "560043", "addr:street": ", H R B R Layout, 1st Block, Babusa Palya, Near Sri Krishna Bhvan, Kalyan Nagar", "cuisine": "regional", "delivery": "yes", "name": "Hotel Little Imperial", "opening_hours": "11:00-23:00", "phone": "080 4164 6360", "smoking": "separated", "takeaway": "yes", "tourism": "hotel"}}, {"type": "node", "id": 4456370889, "lat": 12.9062397, "lon": 77.578546, "tags": {"name": "Aurick Boutique", "name:en": "Aurick Boutique", "tourism": "hotel"}}, {"type": "node", "id": 4475026334, "lat": 12.9462306, "lon": 77.6738079, "tags": {"addr:city": "bangalore", "addr:postcode": "560037", "addr:street": "kempapura main road,kempapura,bellandur", "name": "Nirvana", "tourism": "hotel"}}, {"type": "node", "id": 4490059112, "lat": 12.9395173, "lon": 77.6285566}, {"type": "node", "id": 4496746595, "lat": 12.9947303, "lon": 77.5852505, "tags": {"access": "private", "barrier": "gate", "entrance": "main"}}, {"type": "node", "id": 4496746599, "lat": 12.9946738, "lon": 77.5852594, "tags": {"access": "private", "barrier": "lift_gate"}}, {"type": "node", "id": 4506230395, "lat": 12.9725982, "lon": 77.5794076, "tags": {"name": "TAP Paradise Hotel", "name:en": "TAP Paradise Hotel", "tourism": "hotel"}}, {"type": "node", "id": 4542489893, "lat": 12.9529166, "lon": 77.5450511, "tags": {"addr:city": "Bangalore", "addr:housenumber": "Timber Yard Layout", "addr:postcode": "560026", "addr:street": "Mysore Road", "brand": "Rosewood", "brand:wikidata": "Q7368777", "name": "Rosewood International Hotel", "official_name": "Rosewood Hotels & Resorts", "stars": "3", "tourism": "hotel"}}, {"type": "node", "id": 4558466455, "lat": 12.9316906, "lon": 77.5555034, "tags": {"fast_food": "regional", "food": "veg", "name": "Sankethi's", "operator": "Sankethi Ventures", "smoking": "no", "tourism": "hotel"}}, {"type": "node", "id": 4558992303, "lat": 12.957272, "lon": 77.6444947}, {"type": "node", "id": 4580594297, "lat": 12.9701227, "lon": 77.5794148, "tags": {"internet_access": "wlan", "name": "Hotel Tap Comfort", "name:en": "Hotel Tap Comfort", "tourism": "hotel"}}, {"type": "node", "id": 4584019109, "lat": 12.9730281, "lon": 77.5692897, "tags": {"addr:housenumber": "453/1", "addr:postcode": "560053", "addr:street": "Old Taluk Cutchery Road", "name": "UG Regal - Budget Hotel", "name:en": "UG Regal - Budget Hotel", "name:ru": "UG Regal - Budget Hotel", "tourism": "hotel"}}, {"type": "node", "id": 4584108394, "lat": 12.9735897, "lon": 77.5767585, "tags": {"tourism": "hotel"}}, {"type": "node", "id": 4586451789, "lat": 12.9087932, "lon": 77.5984614, "tags": {"name": "Mass Residency", "name:en": "Mass Residency", "tourism": "hotel"}}, {"type": "node", "id": 4605748243, "lat": 13.0105439, "lon": 77.5504232, "tags": {"addr:city": "Bengaluru", "addr:housenumber": "149/A, R Block", "addr:postcode": "560010", "addr:street": "Chord Road", "internet_access": "yes", "internet_access:fee": "yes", "name": "Hotel Vande Matharam", "tourism": "hotel"}}, {"type": "node", "id": 4607350915, "lat": 12.9805787, "lon": 77.571467, "tags": {"name": "Sheetal Residency", "tourism": "hotel"}}, {"type": "node", "id": 4680181139, "lat": 12.9456273, "lon": 77.5952951, "tags": {"addr:city": "Bengaluru", "addr:full": "2, Arekempenahally, Near Brand Factory, Wilson Garden, Bangalore, 560027", "addr:housenumber": "2", "addr:postcode": "560027", "addr:street": "Arekempenahally", "brand": "Revoli Inn", "email": "hotelempark@gmail.com", "internet_access": "wlan", "internet_access:fee": "customers", "name": "Hotel Empark", "opening_hours": "24/7", "phone": "+91 8904022661", "rooms": "24", "tourism": "hotel", "website": "https://www.emparkinternational.com"}}, {"type": "node", "id": 4685633711, "lat": 12.9673121, "lon": 77.5934379}, {"type": "node", "id": 4685633716, "lat": 12.9675449, "lon": 77.5937858}, {"type": "node", "id": 4697854892, "lat": 12.984291, "lon": 77.5543158, "tags": {"name": "Canara Coffee", "name:en": "Canara coffee", "opening_hours": "Mo-Su 07:00-22:00", "tourism": "hotel"}}, {"type": "node", "id": 4702962189, "lat": 12.9798988, "lon": 77.5759082, "tags": {"addr:street": "5th Cross Road", "internet_access": "wlan", "name": "Suntruppati", "tourism": "hotel"}}, {"type": "node", "id": 4703445290, "lat": 12.9391683, "lon": 77.5715609, "tags": {"addr:street": "DVG Road", "name": "Anand Sagar", "name:en": "Anand Sagar", "tourism": "hotel"}}, {"type": "node", "id": 4704698015, "lat": 12.925346, "lon": 77.5858442, "tags": {"name": "Treebo sellect Jagdish Jayanagar", "name:en": "Treebo sellect Jagdish Jayanagar", "tourism": "hotel"}}, {"type": "node", "id": 4737582021, "lat": 12.9690356, "lon": 77.6066442, "tags": {"name": "Fab Hotel Legacy Brigade Road", "name:en": "Fab Hotel Legacy Brigade Road", "tourism": "hotel", "website": "https://www.fabhotels.com/hotels-in-bangalore/fabhotel-legacy-brigade-road.html"}}, {"type": "node", "id": 4763198525, "lat": 12.9777748, "lon": 77.574757, "tags": {"name": "Mayur Comfor Lodge", "tourism": "hotel"}}, {"type": "node", "id": 4763212044, "lat": 12.978436, "lon": 77.5753365, "tags": {"addr:housenumber": "251", "addr:street": "Subedar Chatram road", "check_date": "2024-02-29", "name": "Royal Regency Lodge", "phone": "080-41130202", "tourism": "hotel"}}, {"type": "node", "id": 4763212764, "lat": 12.9776892, "lon": 77.5747972, "tags": {"name": "Pushpamala lodge", "tourism": "hotel"}}, {"type": "node", "id": 4763212766, "lat": 12.9782866, "lon": 77.5753838, "tags": {"check_date": "2024-02-29", "name": "Royal Lodge", "tourism": "hotel"}}, {"type": "node", "id": 4763212998, "lat": 12.9777193, "lon": 77.5748871, "tags": {"name": "Manjusri Paradise Lodge", "phone": "9880701649", "tourism": "hotel"}}, {"type": "node", "id": 4772970426, "lat": 12.9321765, "lon": 77.623039, "tags": {"name": "Anjappar Chettinad Restuarant Koramangala", "name:en": "Anjappar", "tourism": "hotel"}}, {"type": "node", "id": 4809112923, "lat": 12.9736357, "lon": 77.6218548, "tags": {"brand": "Hyatt", "brand:wikidata": "Q1425063", "name": "Hyatt", "tourism": "hotel", "website": "https://bangalore.hyatthotels.hyatt.com/en/hotel/home.html"}}, {"type": "node", "id": 4811658521, "lat": 12.9038932, "lon": 77.6415555, "tags": {"amenity": "atm", "tourism": "hotel"}}, {"type": "node", "id": 4841000224, "lat": 12.9454272, "lon": 77.5950799, "tags": {"name": "Hotel Dreams inn", "tourism": "hotel"}}, {"type": "node", "id": 4843100423, "lat": 12.9455189, "lon": 77.5951301, "tags": {"name": "Dreams inn", "name:en": "Dreams inn", "tourism": "hotel"}}, {"type": "node", "id": 4843100424, "lat": 12.949295, "lon": 77.5931079, "tags": {"name": "AMM Residency", "name:en": "AMM Residency", "tourism": "hotel"}}, {"type": "node", "id": 4846787923, "lat": 12.9711154, "lon": 77.6058262, "tags": {"name": "Hotel Imperial", "name:en": "Hotel Imperial", "tourism": "hotel"}}, {"type": "node", "id": 4847845825, "lat": 12.9359094, "lon": 77.5927065, "tags": {"name": "Limra", "name:en": "Limra", "tourism": "hotel"}}, {"type": "node", "id": 4849094829, "lat": 12.9352918, "lon": 77.6091731, "tags": {"name": "Blue bells", "name:en": "Blue bells", "tourism": "hotel"}}, {"type": "node", "id": 4849108629, "lat": 12.9470874, "lon": 77.5941987, "tags": {"name": "Supreme", "name:en": "Supreme", "tourism": "hotel"}}, {"type": "node", "id": 4887713720, "lat": 13.0290474, "lon": 77.5402199}, {"type": "node", "id": 4938605253, "lat": 12.9190366, "lon": 77.6648988}, {"type": "node", "id": 4938605254, "lat": 12.9189746, "lon": 77.6651629}, {"type": "node", "id": 4938605255, "lat": 12.9194537, "lon": 77.6652812}, {"type": "node", "id": 4938605256, "lat": 12.9195157, "lon": 77.6650172}, {"type": "node", "id": 4940481425, "lat": 12.9492922, "lon": 77.6453926}, {"type": "node", "id": 5010943974, "lat": 12.9171393, "lon": 77.6726386}, {"type": "node", "id": 5165031722, "lat": 12.9820211, "lon": 77.6456189}, {"type": "node", "id": 5165031723, "lat": 12.9820381, "lon": 77.6457349}, {"type": "node", "id": 5165031724, "lat": 12.9820933, "lon": 77.6457264}, {"type": "node", "id": 5165031725, "lat": 12.9820762, "lon": 77.6456104}, {"type": "node", "id": 5168560648, "lat": 12.980358, "lon": 77.5737339, "tags": {"name": "Rajmahal Boarding and Lodge", "tourism": "hotel"}}, {"type": "node", "id": 5229482747, "lat": 12.9804313, "lon": 77.5765457, "tags": {"name": "The Rialto Hotel", "tourism": "hotel"}}, {"type": "node", "id": 5258929721, "lat": 12.975729, "lon": 77.5992456, "tags": {"addr:housenumber": "A10/6", "addr:postcode": "560001", "addr:street": "Lavelle Road", "name": "The Chancery Hotel", "tourism": "hotel", "wheelchair": "limited"}}, {"type": "node", "id": 5261452101, "lat": 12.9744204, "lon": 77.5709781, "tags": {"name": "Hotel Adarsha Palace", "tourism": "hotel"}}, {"type": "node", "id": 5269220027, "lat": 13.0108921, "lon": 77.5505079, "tags": {"email": "stay@minlahotels.com", "internet_access": "wlan", "internet_access:fee": "no", "name": "Minla Hotel", "phone": "+91 781 687 7542", "phone_1": "+91 781 687 7541", "stars": "3", "tourism": "hotel", "website": "http://www.minlahotels.com/"}}, {"type": "node", "id": 5273601824, "lat": 12.9923067, "lon": 77.5944585, "tags": {"name": "Ujval", "tourism": "hotel"}}, {"type": "node", "id": 5273606322, "lat": 12.9948258, "lon": 77.5970478, "tags": {"check_date": "2024-01-21", "name": "Jayamahal Palace", "source": "survey", "tourism": "hotel"}}, {"type": "node", "id": 5292780517, "lat": 13.0236855, "lon": 77.6372866, "tags": {"name": "Woodland", "tourism": "hotel"}}, {"type": "node", "id": 5316624114, "lat": 12.9698386, "lon": 77.6066965, "tags": {"addr:city": "Bangalore", "addr:housenumber": "72", "addr:postcode": "560025", "addr:street": "Brigade Road", "name": "Ocea International", "phone": "080 40636261", "tourism": "hotel"}}, {"type": "node", "id": 5348958973, "lat": 13.0419285, "lon": 77.6132521, "tags": {"air_conditioning": "yes", "brand": "Country Inn & Suites", "brand:wikidata": "Q5177332", "check_date": "2025-06-14", "internet_access": "wlan", "internet_access:fee": "no", "name": "Country Inn & Suites by Carlson", "rooms": "0", "smoking": "isolated", "tourism": "hotel"}}, {"type": "node", "id": 5349525425, "lat": 12.9272923, "lon": 77.6161593, "tags": {"name": "Comfy", "tourism": "hotel"}}, {"type": "node", "id": 5365860855, "lat": 12.9669657, "lon": 77.6068192, "tags": {"addr:street": "126, Brigade Towers, Brigade Road, Ashok Nagar, Bengaluru, Karnataka 560025, India", "name": "Hotel Vellara", "phone": "+91 80 2536 9116", "tourism": "hotel"}}, {"type": "node", "id": 5402224050, "lat": 13.0426855, "lon": 77.6095271, "tags": {"air_conditioning": "yes", "alt_name": "Courtyard by Marriott", "check_date": "2025-06-14", "name": "Courtyard", "tourism": "hotel"}}, {"type": "node", "id": 5402307935, "lat": 12.9803587, "lon": 77.5717968, "tags": {"name": "Hotel Kaveri", "tourism": "hotel"}}, {"type": "node", "id": 5409690041, "lat": 12.9773082, "lon": 77.5750587, "tags": {"name": "Grand Suites", "tourism": "hotel"}}, {"type": "node", "id": 5435095922, "lat": 13.0491546, "lon": 77.5930152, "tags": {"name": "Cafe Coffee Day", "name:kn": "\u0c95\u0cab\u0cc6 \u0c95\u0cbe\u0cab\u0cbf \u0ca1\u0cc7", "tourism": "hotel"}}, {"type": "node", "id": 5435117121, "lat": 13.0488736, "lon": 77.6120246, "tags": {"name": "Athidi", "tourism": "hotel"}}, {"type": "node", "id": 5455464021, "lat": 12.9599897, "lon": 77.5565132, "tags": {"addr:street": "Mysore Road", "internet_access": "wlan", "name": "Benhur Pride", "opening_hours": "24/7", "tourism": "hotel"}}, {"type": "node", "id": 5520248640, "lat": 13.0552034, "lon": 77.6020719, "tags": {"name": "Akshaya", "name:kn": "\u0c85\u0c95\u0ccd\u0cb7\u0caf", "tourism": "hotel"}}, {"type": "node", "id": 5535759602, "lat": 13.028156, "lon": 77.558854, "tags": {"internet_access": "wlan", "name": "Comfort Inn & Suites", "tourism": "hotel"}}, {"type": "node", "id": 5623550266, "lat": 12.9878823, "lon": 77.5558068, "tags": {"name": "Vajra Heritage", "tourism": "hotel"}}, {"type": "node", "id": 5643902786, "lat": 12.9243237, "lon": 77.6743323, "tags": {"addr:city": "Bengaluru", "brand": "OYO", "brand:wikidata": "Q24906315", "internet_access": "wlan", "internet_access:fee": "no", "name": "Melody Inn", "tourism": "hotel"}}, {"type": "node", "id": 5922608011, "lat": 12.9742409, "lon": 77.575254, "tags": {"name": "Hotel Mahalakshmi", "name:kn": "\u0cae\u0cb9\u0cbe\u0cb2\u0c95\u0ccd\u0cb7\u0ccd\u0cae\u0cbf", "tourism": "hotel"}}, {"type": "node", "id": 5922659262, "lat": 12.997393, "lon": 77.5500353, "tags": {"name": "MySpace Express Balaji Residency", "tourism": "hotel"}}, {"type": "node", "id": 5922660391, "lat": 12.9899117, "lon": 77.5532573, "tags": {"name": "Sri Devi Lodge", "tourism": "hotel"}}, {"type": "node", "id": 5922660396, "lat": 12.9899326, "lon": 77.5527397, "tags": {"name": "Aryan Residency", "tourism": "hotel"}}, {"type": "node", "id": 6021741320, "lat": 12.9665839, "lon": 77.5954372}, {"type": "node", "id": 6084359837, "lat": 12.9007, "lon": 77.6318647}, {"type": "node", "id": 6084359838, "lat": 12.9006652, "lon": 77.6318784}, {"type": "node", "id": 6084359839, "lat": 12.9005317, "lon": 77.631916}, {"type": "node", "id": 6084359840, "lat": 12.9005409, "lon": 77.6319406}, {"type": "node", "id": 6169813971, "lat": 12.9259979, "lon": 77.6708823, "tags": {"name": "Treebo Hotel Worldtree Bellandur", "tourism": "hotel"}}, {"type": "node", "id": 6240954285, "lat": 12.9716633, "lon": 77.5726981, "tags": {"name": "Lalithamahal", "tourism": "hotel"}}, {"type": "node", "id": 6418988788, "lat": 12.9711847, "lon": 77.5763869, "tags": {"addr:street": "B.V.K. Iyengar Road", "name": "Madhu Lodge", "tourism": "hotel"}}, {"type": "node", "id": 6449208762, "lat": 12.9340481, "lon": 77.5344673, "tags": {"addr:city": "Bengaluru", "addr:postcode": "560085", "addr:street": "Outer Ring Road", "description": "A hotel run by the students of PES University. Open to all. Ask Security for the Guest House.", "level": "5", "name": "Celestial Heights", "rooms": "4", "tourism": "hotel"}}, {"type": "node", "id": 6487165544, "lat": 12.9735807, "lon": 77.5794876, "tags": {"addr:city": "Bangalore", "addr:country": "IN", "addr:housenumber": "9, 12", "addr:postcode": "560009", "addr:street": "Kempe Gowda Road", "email": "book@hotelbangaloregate.com", "name": "Hotel Bangalore Gate", "phone": "+91-9945333999", "rooms": "81", "tourism": "hotel", "website": "https://www.hotelbangaloregate.com"}}, {"type": "node", "id": 6584009963, "lat": 12.9727609, "lon": 77.6073763, "tags": {"name": "Monarch Hotel", "tourism": "hotel"}}, {"type": "node", "id": 6698387556, "lat": 12.9703492, "lon": 77.6075091}, {"type": "node", "id": 6761441048, "lat": 13.0251512, "lon": 77.548137, "tags": {"addr:street": "Railway Parcel Road", "brand": "Holiday Inn Express", "brand:wikidata": "Q5880423", "name": "Holiday Inn Express", "tourism": "hotel"}}, {"type": "node", "id": 6788643755, "lat": 12.9764637, "lon": 77.6196256, "tags": {"air_conditioning": "yes", "brand": "Radisson", "brand:wikidata": "Q1751979", "internet_access": "wlan", "internet_access:fee": "no", "name": "Radisson City Center", "operator": "Radisson", "stars": "4", "tourism": "hotel", "wheelchair": "yes"}}, {"type": "node", "id": 6808473960, "lat": 12.9372838, "lon": 77.6196276, "tags": {"tourism": "hotel"}}, {"type": "node", "id": 7156536794, "lat": 12.98714, "lon": 77.5494285, "tags": {"name": "Naidu Palace", "tourism": "hotel"}}, {"type": "node", "id": 7166273511, "lat": 12.921283, "lon": 77.5932645, "tags": {"name": "Kalpavriksha Upahar", "tourism": "hotel"}}, {"type": "node", "id": 7215593391, "lat": 13.0279389, "lon": 77.5617921, "tags": {"name": "Galaxy Suites", "tourism": "hotel"}}, {"type": "node", "id": 7231990190, "lat": 12.9732799, "lon": 77.619413}, {"type": "node", "id": 7232185449, "lat": 13.0191154, "lon": 77.5851502, "tags": {"addr:city": "Bangalore", "addr:country": "IN", "addr:hamlet": "Ganganagar", "addr:housenumber": "8", "addr:postcode": "560032", "addr:street": "Bellary Road", "name": "Four Seasons Hotel", "phone": "+91 (080) 4522-2222", "rooms": "230", "tourism": "hotel", "website": "https://fourseasons.com/bengaluru/"}}, {"type": "node", "id": 7236205665, "lat": 12.9883253, "lon": 77.5497463, "tags": {"name": "H K Residency", "tourism": "hotel"}}, {"type": "node", "id": 7236205667, "lat": 12.9902802, "lon": 77.5504638, "tags": {"name": "Navya Residency", "tourism": "hotel"}}, {"type": "node", "id": 7236205678, "lat": 12.996571, "lon": 77.5508266, "tags": {"name": "The Grand Coral", "tourism": "hotel"}}, {"type": "node", "id": 7276500291, "lat": 12.9796338, "lon": 77.5787123}, {"type": "node", "id": 7276500292, "lat": 12.9796721, "lon": 77.578178}, {"type": "node", "id": 7276500293, "lat": 12.9803467, "lon": 77.5782291}, {"type": "node", "id": 7276500294, "lat": 12.9803083, "lon": 77.5787634}, {"type": "node", "id": 7292235611, "lat": 12.9899013, "lon": 77.5533586, "tags": {"name": "Mathrushree Residency", "tourism": "hotel"}}, {"type": "node", "id": 7293719499, "lat": 12.9656219, "lon": 77.5898294}, {"type": "node", "id": 7294299938, "lat": 12.9177872, "lon": 77.6238753}, {"type": "node", "id": 7294299939, "lat": 12.9177794, "lon": 77.6237451}, {"type": "node", "id": 7294299940, "lat": 12.9179063, "lon": 77.6237371}, {"type": "node", "id": 7294299941, "lat": 12.9179546, "lon": 77.6238648}, {"type": "node", "id": 7294299977, "lat": 12.9235417, "lon": 77.6185557, "tags": {"name": "Olivia Inn & Suites", "tourism": "hotel"}}, {"type": "node", "id": 7296739283, "lat": 13.0285184, "lon": 77.5412396}, {"type": "node", "id": 7296739284, "lat": 13.0293082, "lon": 77.5416943}, {"type": "node", "id": 7296745385, "lat": 13.0297524, "lon": 77.5409326}, {"type": "node", "id": 7296745386, "lat": 13.02984, "lon": 77.5403551}, {"type": "node", "id": 7301357909, "lat": 12.9924782, "lon": 77.5984472, "tags": {"name": "Kengiri", "tourism": "hotel"}}, {"type": "node", "id": 7301358042, "lat": 12.9893588, "lon": 77.5952729}, {"type": "node", "id": 7301358043, "lat": 12.9891329, "lon": 77.5950625}, {"type": "node", "id": 7301358044, "lat": 12.9895755, "lon": 77.5945306}, {"type": "node", "id": 7301358089, "lat": 12.983268, "lon": 77.5941621, "tags": {"name": "The Chevron", "tourism": "hotel"}}, {"type": "node", "id": 7301358131, "lat": 12.9908487, "lon": 77.5798957}, {"type": "node", "id": 7301358132, "lat": 12.9905965, "lon": 77.5797844}, {"type": "node", "id": 7301358166, "lat": 12.9845137, "lon": 77.58567}, {"type": "node", "id": 7301358171, "lat": 12.9840234, "lon": 77.5859638}, {"type": "node", "id": 7301358172, "lat": 12.9844863, "lon": 77.5860715}, {"type": "node", "id": 7301358177, "lat": 12.9864149, "lon": 77.5854902}, {"type": "node", "id": 7301813105, "lat": 13.0427243, "lon": 77.6207305}, {"type": "node", "id": 7301813106, "lat": 13.0423532, "lon": 77.6208521}, {"type": "node", "id": 7301813107, "lat": 13.0422316, "lon": 77.6204553}, {"type": "node", "id": 7301813108, "lat": 13.0426369, "lon": 77.6203592}, {"type": "node", "id": 7301813109, "lat": 13.0414737, "lon": 77.619918}, {"type": "node", "id": 7301813114, "lat": 13.0422182, "lon": 77.6199794}, {"type": "node", "id": 7301813115, "lat": 13.0421923, "lon": 77.6203111}, {"type": "node", "id": 7301813127, "lat": 13.0415363, "lon": 77.620257}, {"type": "node", "id": 7395562811, "lat": 12.967664, "lon": 77.5952218}, {"type": "node", "id": 7395562812, "lat": 12.9675681, "lon": 77.5957278}, {"type": "node", "id": 7436576271, "lat": 12.9536755, "lon": 77.6390347}, {"type": "node", "id": 7976318316, "lat": 12.9778932, "lon": 77.6444166, "tags": {"brand": "Woke Hostels", "check_date": "2024-01-06", "name": "Woke", "tourism": "hotel"}}, {"type": "node", "id": 8196821613, "lat": 13.0284821, "lon": 77.5199844, "tags": {"addr:full": "Peenya, Peenya III Phase, Peenya, Bengaluru, Karnataka", "addr:state": "Karnataka", "name": "SUPREME HOTEL", "tourism": "hotel"}}, {"type": "node", "id": 8196826662, "lat": 12.9899167, "lon": 77.5735756, "tags": {"addr:full": "140, 2nd Cross Rd, Jai Bheema Nagar, Seshadripuram, Bengaluru, Karnataka", "addr:state": "Karnataka", "name": "Ayra Hotel", "tourism": "hotel"}}, {"type": "node", "id": 8534502718, "lat": 13.0219436, "lon": 77.5536336, "tags": {"name": "Vijayalakshmi Residency", "tourism": "hotel"}}, {"type": "node", "id": 8728789125, "lat": 12.9361688, "lon": 77.631568, "tags": {"contact:website": "http://halcyoncondos.com/", "name": "Halcyon Hotel Residences", "tourism": "hotel"}}, {"type": "node", "id": 8852383317, "lat": 12.9784414, "lon": 77.5762946, "tags": {"addr:city": "Be\u1e45ga\u1e37\u016bru", "addr:neighborhood": "G\u0101m\u0310dh\u012bngar", "addr:state": "KA", "alt_name:en": "The HLV Grand", "internet_access": "wlan", "internet_access:fee": "customers", "name": "HLV Grand Inn", "phone": "+919845071032", "tourism": "hotel"}}, {"type": "node", "id": 8989627051, "lat": 12.9723309, "lon": 77.604513, "tags": {"addr:city": "Bangalore", "addr:country": "IN", "addr:housenumber": "17-18", "addr:street": "Museum Road", "email": "enquiry@oxfordinn.in", "name": "Oxford Inn", "phone": "+91 80 4530 4530", "tourism": "hotel", "website": "https://oxfordinn.in/"}}, {"type": "node", "id": 9063471394, "lat": 12.9809954, "lon": 77.5751603, "tags": {"name": "Hotel Citadel", "tourism": "hotel"}}, {"type": "node", "id": 9159982976, "lat": 12.9134318, "lon": 77.6054041, "tags": {"brand": "OYO", "brand:wikidata": "Q24906315", "name": "OYO Townhouse 264", "tourism": "hotel"}}, {"type": "node", "id": 9230655244, "lat": 12.9705614, "lon": 77.6167908, "tags": {"name": "Laika Boutique Stay", "tourism": "hotel"}}, {"type": "node", "id": 9230655249, "lat": 12.971156, "lon": 77.6171355, "tags": {"name": "Golden Lotus", "tourism": "hotel"}}, {"type": "node", "id": 9296258310, "lat": 12.9599329, "lon": 77.5933074, "tags": {"name": "Octave Hotel", "tourism": "hotel"}}, {"type": "node", "id": 9378343681, "lat": 13.0292753, "lon": 77.5591419, "tags": {"addr:housenumber": "1st phase, #11", "addr:street": "Mathikere Main Road, Next to LIC Office, Gokula 1st stage, HMT Layout, Yeshwantpur, Bengaluru, Karnataka -560054", "description": "Small hotel with good rooms, near to Yeshwantpur Railway station, with a lot of restaurants in the vicinity.", "location": "Bengaluru", "name": "Hotel Sree Nandanam Residency", "phone": "+919141536410", "tourism": "hotel"}}, {"type": "node", "id": 9540035554, "lat": 12.9715401, "lon": 77.6081926}, {"type": "node", "id": 9563008717, "lat": 13.0534758, "lon": 77.5753819, "tags": {"name": "Udupi upahar", "name:en": "Udupi Vaibhav", "opening_hours": "Mo-Su 20:00-22:30", "tourism": "hotel"}}, {"type": "node", "id": 9563015617, "lat": 13.0494386, "lon": 77.5757447, "tags": {"tourism": "hotel"}}, {"type": "node", "id": 9583428981, "lat": 13.0537347, "lon": 77.5932625}, {"type": "node", "id": 9583428984, "lat": 13.0538393, "lon": 77.5925893}, {"type": "node", "id": 9680521742, "lat": 12.9764149, "lon": 77.6197104}, {"type": "node", "id": 9680521743, "lat": 12.9763822, "lon": 77.6196621}, {"type": "node", "id": 9680521744, "lat": 12.9759552, "lon": 77.6195807}, {"type": "node", "id": 9680521745, "lat": 12.9760309, "lon": 77.6192388}, {"type": "node", "id": 9680521746, "lat": 12.9766475, "lon": 77.6193778}, {"type": "node", "id": 9680521747, "lat": 12.9767344, "lon": 77.6195421}, {"type": "node", "id": 9779677485, "lat": 12.9924974, "lon": 77.5883092}, {"type": "node", "id": 9779677610, "lat": 12.993935, "lon": 77.5866643}, {"type": "node", "id": 9797011358, "lat": 12.9854725, "lon": 77.6070269, "tags": {"name": "Hotel Ashoka", "tourism": "hotel"}}, {"type": "node", "id": 9811346764, "lat": 12.9727753, "lon": 77.619693}, {"type": "node", "id": 9811346769, "lat": 12.9729282, "lon": 77.6199532}, {"type": "node", "id": 9811346781, "lat": 12.9738329, "lon": 77.6198804}, {"type": "node", "id": 9811346784, "lat": 12.9739212, "lon": 77.6190124}, {"type": "node", "id": 9811346785, "lat": 12.9737614, "lon": 77.6194641}, {"type": "node", "id": 9811346786, "lat": 12.9737029, "lon": 77.6199616}, {"type": "node", "id": 9811346796, "lat": 12.9731136, "lon": 77.6199474, "tags": {"access": "private", "barrier": "gate"}}, {"type": "node", "id": 9811346797, "lat": 12.974286, "lon": 77.6189889}, {"type": "node", "id": 9811346798, "lat": 12.9739359, "lon": 77.6189412}, {"type": "node", "id": 9811346799, "lat": 12.9741258, "lon": 77.6199588}, {"type": "node", "id": 9811346800, "lat": 12.9726958, "lon": 77.6193509}, {"type": "node", "id": 9811346802, "lat": 12.9742056, "lon": 77.6194196}, {"type": "node", "id": 9811346803, "lat": 12.9742769, "lon": 77.6190492}, {"type": "node", "id": 9833465653, "lat": 12.9229069, "lon": 77.6513844, "tags": {"name": "Astra Hotels and Suits", "tourism": "hotel"}}, {"type": "node", "id": 9910066828, "lat": 12.9660657, "lon": 77.59821, "tags": {"access": "private", "barrier": "gate", "entrance": "exit"}}, {"type": "node", "id": 9910066829, "lat": 12.9663787, "lon": 77.5985499, "tags": {"access": "private", "barrier": "gate"}}, {"type": "node", "id": 9933650317, "lat": 12.943185, "lon": 77.6213595, "tags": {"internet_access": "wlan", "name": "Regenta Inn Grand", "tourism": "hotel", "website": "https://www.royalorchidhotels.com/regenta-inn-grand-koramangala-bengaluru/contact-us"}}, {"type": "node", "id": 9936668905, "lat": 12.9836966, "lon": 77.5493494, "tags": {"name": "Hotel Madhu", "tourism": "hotel"}}, {"type": "node", "id": 9981998140, "lat": 12.9758018, "lon": 77.6210867}, {"type": "node", "id": 10009237338, "lat": 12.9820167, "lon": 77.605782, "tags": {"check_date": "2023-04-07", "name": "Kamat\u2019s Hotel Mayura", "tourism": "hotel", "wheelchair": "no"}}, {"type": "node", "id": 10015163280, "lat": 12.975303, "lon": 77.5991559}, {"type": "node", "id": 10015163281, "lat": 12.9754465, "lon": 77.5994148}, {"type": "node", "id": 10015163282, "lat": 12.9756216, "lon": 77.5994074}, {"type": "node", "id": 10015163283, "lat": 12.9757579, "lon": 77.5996638}, {"type": "node", "id": 10015163284, "lat": 12.9757122, "lon": 77.5988935}, {"type": "node", "id": 10015163285, "lat": 12.9760279, "lon": 77.5995037}, {"type": "node", "id": 10073419789, "lat": 12.983907, "lon": 77.5853178}, {"type": "node", "id": 10073419790, "lat": 12.9840102, "lon": 77.5844005}, {"type": "node", "id": 10073419791, "lat": 12.9871598, "lon": 77.5838069}, {"type": "node", "id": 10073419792, "lat": 12.9870864, "lon": 77.5840545}, {"type": "node", "id": 10095905212, "lat": 13.040766, "lon": 77.6195055, "tags": {"brand": "Ibis", "brand:wikidata": "Q920166", "name": "Ibis", "tourism": "hotel"}}, {"type": "node", "id": 10105851167, "lat": 13.0286157, "lon": 77.541064}, {"type": "node", "id": 10105851168, "lat": 13.0285556, "lon": 77.5410278}, {"type": "node", "id": 10105851172, "lat": 13.0293769, "lon": 77.5415765}, {"type": "node", "id": 10108261309, "lat": 12.9687832, "lon": 77.614379}, {"type": "node", "id": 10108261310, "lat": 12.9689158, "lon": 77.6143101}, {"type": "node", "id": 10123822786, "lat": 12.9169645, "lon": 77.5791794, "tags": {"brand": "The Great Indian", "name": "Le Foliage", "tourism": "hotel"}}, {"type": "node", "id": 10123938475, "lat": 12.9793312, "lon": 77.6291742, "tags": {"name": "Palmtree", "tourism": "hotel"}}, {"type": "node", "id": 10123938476, "lat": 12.9756154, "lon": 77.6173406, "tags": {"name": "Shilton", "tourism": "hotel"}}, {"type": "node", "id": 10129602795, "lat": 12.9666845, "lon": 77.5951539, "tags": {"barrier": "lift_gate"}}, {"type": "node", "id": 10129602796, "lat": 12.9674826, "lon": 77.5949934, "tags": {"barrier": "gate", "motor_vehicle": "permissive"}}, {"type": "node", "id": 10228570995, "lat": 12.9870772, "lon": 77.5785393, "tags": {"name": "Pranam Comforts", "tourism": "hotel"}}, {"type": "node", "id": 10236025447, "lat": 12.973084, "lon": 77.5999474, "tags": {"barrier": "gate"}}, {"type": "node", "id": 10280759754, "lat": 12.9705917, "lon": 77.6076124}, {"type": "node", "id": 10280759755, "lat": 12.9709429, "lon": 77.6069415}, {"type": "node", "id": 10286214693, "lat": 12.9870832, "lon": 77.5837927}, {"type": "node", "id": 10286250847, "lat": 12.9870278, "lon": 77.5837824}, {"type": "node", "id": 10286250848, "lat": 12.986785, "lon": 77.5837354}, {"type": "node", "id": 10286316268, "lat": 12.9868183, "lon": 77.5835974}, {"type": "node", "id": 10293635625, "lat": 12.9158426, "lon": 77.6456594, "tags": {"name": "Nestaway", "operator": "Nestaway", "tourism": "hotel"}}, {"type": "node", "id": 10293872597, "lat": 12.9707135, "lon": 77.6068606}, {"type": "node", "id": 10293872602, "lat": 12.9700834, "lon": 77.6080104}, {"type": "node", "id": 10293872603, "lat": 12.9706597, "lon": 77.6082525}, {"type": "node", "id": 10293872604, "lat": 12.9707169, "lon": 77.6081085}, {"type": "node", "id": 10293872607, "lat": 12.9710167, "lon": 77.6082339}, {"type": "node", "id": 10293872608, "lat": 12.9710375, "lon": 77.6081746}, {"type": "node", "id": 10293884309, "lat": 12.9707442, "lon": 77.6080498}, {"type": "node", "id": 10293884310, "lat": 12.9707659, "lon": 77.6079961}, {"type": "node", "id": 10293884311, "lat": 12.9702155, "lon": 77.6077621}, {"type": "node", "id": 10293884317, "lat": 12.9712566, "lon": 77.6087844}, {"type": "node", "id": 10295397903, "lat": 12.9711587, "lon": 77.6006922, "tags": {"name": "Nahar Heritage Hotel", "tourism": "hotel"}}, {"type": "node", "id": 10295397905, "lat": 12.9705889, "lon": 77.6006124, "tags": {"name": "Treebo Hotel Edge", "tourism": "hotel"}}, {"type": "node", "id": 10295411736, "lat": 12.9758285, "lon": 77.5991447}, {"type": "node", "id": 10296444948, "lat": 12.9977157, "lon": 77.5842154}, {"type": "node", "id": 10296444949, "lat": 12.9976961, "lon": 77.5842389}, {"type": "node", "id": 10296444950, "lat": 12.9976151, "lon": 77.584267}, {"type": "node", "id": 10296444951, "lat": 12.9973008, "lon": 77.5843254}, {"type": "node", "id": 10296444952, "lat": 12.9972669, "lon": 77.5841101}, {"type": "node", "id": 10296444953, "lat": 12.9977066, "lon": 77.584037}, {"type": "node", "id": 10297770883, "lat": 12.9677449, "lon": 77.6023341}, {"type": "node", "id": 10297772566, "lat": 12.9652246, "lon": 77.5989882, "tags": {"access": "private", "barrier": "gate"}}, {"type": "node", "id": 10297772571, "lat": 12.9656549, "lon": 77.599153}, {"type": "node", "id": 10303904019, "lat": 13.0020778, "lon": 77.66305, "tags": {"check_date": "2025-08-11", "name": "Hotel Grand Seasons", "source": "survey", "tourism": "hotel"}}, {"type": "node", "id": 10651832562, "lat": 13.017598, "lon": 77.6524891, "tags": {"name": "Udupi Krishna Grand", "tourism": "hotel"}}, {"type": "node", "id": 10651913725, "lat": 12.9550861, "lon": 77.6506473, "tags": {"name": "Pearl suites", "tourism": "hotel"}}, {"type": "node", "id": 10719534211, "lat": 12.9847264, "lon": 77.5766972}, {"type": "node", "id": 10719534212, "lat": 12.9840364, "lon": 77.5766922}, {"type": "node", "id": 10719534213, "lat": 12.9840864, "lon": 77.5764225}, {"type": "node", "id": 10719534214, "lat": 12.9847523, "lon": 77.5763817}, {"type": "node", "id": 10743613853, "lat": 12.919319, "lon": 77.6207066}, {"type": "node", "id": 10743613854, "lat": 12.9193973, "lon": 77.6207112}, {"type": "node", "id": 10743613855, "lat": 12.9193094, "lon": 77.620827}, {"type": "node", "id": 10796893055, "lat": 12.9984554, "lon": 77.5965818}, {"type": "node", "id": 10796895625, "lat": 12.9973868, "lon": 77.5986168}, {"type": "node", "id": 10796895639, "lat": 12.9954708, "lon": 77.5973288}, {"type": "node", "id": 10861572937, "lat": 12.9243572, "lon": 77.6667784}, {"type": "node", "id": 10861572938, "lat": 12.9243642, "lon": 77.6669925}, {"type": "node", "id": 10861572939, "lat": 12.9242384, "lon": 77.667009}, {"type": "node", "id": 10861572940, "lat": 12.9242298, "lon": 77.6668923}, {"type": "node", "id": 10861572942, "lat": 12.9243309, "lon": 77.6667942}, {"type": "node", "id": 10924807387, "lat": 12.9648241, "lon": 77.5985719, "tags": {"name": "Melange Astris", "tourism": "hotel"}}, {"type": "node", "id": 10979409732, "lat": 12.976116, "lon": 77.6192582}, {"type": "node", "id": 10979409733, "lat": 12.9763378, "lon": 77.6193087}, {"type": "node", "id": 10979409737, "lat": 12.9766096, "lon": 77.6193706}, {"type": "node", "id": 10979969444, "lat": 12.9758072, "lon": 77.6211341}, {"type": "node", "id": 10989236998, "lat": 12.9919025, "lon": 77.5885081, "tags": {"access": "private", "barrier": "gate"}}, {"type": "node", "id": 10994931294, "lat": 12.9649078, "lon": 77.5999693}, {"type": "node", "id": 10994931295, "lat": 12.9648561, "lon": 77.5993048}, {"type": "node", "id": 10994931297, "lat": 12.9645078, "lon": 77.599331}, {"type": "node", "id": 10994931298, "lat": 12.9645424, "lon": 77.5998455}, {"type": "node", "id": 11031553980, "lat": 13.0582694, "lon": 77.5861826, "tags": {"access": "private", "barrier": "gate"}}, {"type": "node", "id": 11035791441, "lat": 12.9746265, "lon": 77.5991997}, {"type": "node", "id": 11065895405, "lat": 12.9776602, "lon": 77.5767332, "tags": {"name:es": "goSTOPS Hostel", "tourism": "hotel"}}, {"type": "node", "id": 11096782343, "lat": 12.9988487, "lon": 77.5835757}, {"type": "node", "id": 11096782344, "lat": 12.99888, "lon": 77.5837728}, {"type": "node", "id": 11096782345, "lat": 12.9993465, "lon": 77.5836629}, {"type": "node", "id": 11096782346, "lat": 12.9993387, "lon": 77.5834617}, {"type": "node", "id": 11101583852, "lat": 12.9668206, "lon": 77.6412282, "tags": {"name": "Bloom Hotel", "tourism": "hotel"}}, {"type": "node", "id": 11131430552, "lat": 12.9690174, "lon": 77.6361697, "tags": {"brand": "FabHotels", "brand:wikidata": "Q55611387", "name": "FabHotels", "tourism": "hotel"}}, {"type": "node", "id": 11209916093, "lat": 13.0586077, "lon": 77.5927247, "tags": {"addr:city": "Bengaluru", "addr:housenumber": "31, 32, 33, E Block Extension,", "addr:postcode": "560092", "addr:street": "14th Main Rd, Sahakar Nagar, Byatarayanapura", "check_date": "2023-09-22", "internet_access": "wlan", "name": "Attide biz", "opening_hours": "24/7", "phone": "+919902000200", "tourism": "hotel"}}, {"type": "node", "id": 11215814225, "lat": 12.9441289, "lon": 77.5680437, "tags": {"name": "Treebo Akshaya Bull Temple", "operator": "Treebo", "tourism": "hotel"}}, {"type": "node", "id": 11232397640, "lat": 12.9243299, "lon": 77.6669931}, {"type": "node", "id": 11232397641, "lat": 12.9243293, "lon": 77.6670045}, {"type": "node", "id": 11232397642, "lat": 12.9243332, "lon": 77.6667795}, {"type": "node", "id": 11268445215, "lat": 12.9857927, "lon": 77.5789851, "tags": {"name": "Janardhan", "tourism": "hotel"}}, {"type": "node", "id": 11279857489, "lat": 12.9184255, "lon": 77.5810973, "tags": {"name": "Olive Jayanagar", "tourism": "hotel"}}, {"type": "node", "id": 11290256859, "lat": 12.9130408, "lon": 77.605488, "tags": {"name": "FabExpress Oriental Suites", "tourism": "hotel"}}, {"type": "node", "id": 11290438222, "lat": 12.9521048, "lon": 77.5945294, "tags": {"level": "0;1;2;3;4", "name": "Poornima Regency", "tourism": "hotel"}}, {"type": "node", "id": 11292323048, "lat": 12.9045587, "lon": 77.5939962}, {"type": "node", "id": 11292323050, "lat": 12.9045596, "lon": 77.5941079}, {"type": "node", "id": 11292323051, "lat": 12.9045597, "lon": 77.5941452}, {"type": "node", "id": 11292323053, "lat": 12.9045591, "lon": 77.5940305}, {"type": "node", "id": 11292323054, "lat": 12.9044695, "lon": 77.5939963}, {"type": "node", "id": 11292323055, "lat": 12.9044697, "lon": 77.5941453}, {"type": "node", "id": 11295297228, "lat": 12.9479778, "lon": 77.5946052, "tags": {"check_date": "2023-10-28", "internet_access": "wlan", "internet_access:fee": "customers", "name": "Temple Tree Hotel", "payment:mastercard": "yes", "payment:visa": "yes", "tourism": "hotel"}}, {"type": "node", "id": 11295303737, "lat": 12.9447473, "lon": 77.5968662, "tags": {"addr:city": "Banglore", "addr:housenumber": "61", "addr:postcode": "56027", "addr:street": "13th Cross Road", "air_conditioning": "yes", "construction": "hotel", "email": "info@biltonhotel.com", "level": "4", "mobile": "+91 88844 11190", "name": "Bilton", "tourism": "hotel", "website": "https://biltonhotel.com", "wheelchair": "limited"}}, {"type": "node", "id": 11295814510, "lat": 12.9565763, "lon": 77.5922448, "tags": {"name": "Hotel Sarbhawal Residency", "tourism": "hotel"}}, {"type": "node", "id": 11295814511, "lat": 12.9564473, "lon": 77.5913961, "tags": {"addr:full": "40, Annipura Main Road, 1st Cross, Bengaluru", "addr:postcode": "560027", "contact:email": "dreamzzlodge@gmail.com", "contact:mobile": "+91 89707 00900", "contact:phone": "+91 80 4120 4347", "name": "Dreamz Lodge", "tourism": "hotel"}}, {"type": "node", "id": 11309805457, "lat": 12.9165478, "lon": 77.5979007, "tags": {"check_date": "2023-11-03", "name": "Hotel Raja Galaxy", "tourism": "hotel"}}, {"type": "node", "id": 11323106498, "lat": 12.9774811, "lon": 77.5769604, "tags": {"name": "Vovo premier hotel", "tourism": "hotel"}}, {"type": "node", "id": 11342928944, "lat": 12.9721996, "lon": 77.5942797}, {"type": "node", "id": 11374929990, "lat": 12.9179074, "lon": 77.6237552}, {"type": "node", "id": 11374929991, "lat": 12.9179532, "lon": 77.6237524}, {"type": "node", "id": 11374929992, "lat": 12.9179541, "lon": 77.6237671}, {"type": "node", "id": 11374929993, "lat": 12.9179813, "lon": 77.6237653}, {"type": "node", "id": 11374929994, "lat": 12.9179863, "lon": 77.6238497}, {"type": "node", "id": 11374929995, "lat": 12.9179538, "lon": 77.6238518}, {"type": "node", "id": 11434743801, "lat": 12.9178452, "lon": 77.6074222, "tags": {"name": "Patna Wale", "tourism": "hotel"}}, {"type": "node", "id": 11474868240, "lat": 12.9167855, "lon": 77.5900361}, {"type": "node", "id": 11474868241, "lat": 12.9167826, "lon": 77.5901364}, {"type": "node", "id": 11474868242, "lat": 12.9165462, "lon": 77.5901647}, {"type": "node", "id": 11474868243, "lat": 12.9165367, "lon": 77.5900419}, {"type": "node", "id": 11476370285, "lat": 12.9667247, "lon": 77.5947078, "tags": {"name": "Olive Richmond Circle", "tourism": "hotel"}}, {"type": "node", "id": 11493493696, "lat": 12.9395052, "lon": 77.6285586}, {"type": "node", "id": 11493493697, "lat": 12.9395035, "lon": 77.628548}, {"type": "node", "id": 11513421569, "lat": 12.9739463, "lon": 77.5700295, "tags": {"name": "Tiba Hotel", "tourism": "hotel"}}, {"type": "node", "id": 11518830718, "lat": 12.9703425, "lon": 77.6145858, "tags": {"check_date": "2024-01-15", "name": "Brunton Heights", "payment:cash": "yes", "payment:credit_cards": "yes", "payment:debit_cards": "yes", "tourism": "hotel"}}, {"type": "node", "id": 11527323902, "lat": 12.9479552, "lon": 77.6463488}, {"type": "node", "id": 11527323903, "lat": 12.9476964, "lon": 77.6462281}, {"type": "node", "id": 11527323904, "lat": 12.9482373, "lon": 77.6449347}, {"type": "node", "id": 11527323905, "lat": 12.9492412, "lon": 77.6453282}, {"type": "node", "id": 11533546769, "lat": 12.9845868, "lon": 77.5764267, "tags": {"tourism": "hotel"}}, {"type": "node", "id": 11537284209, "lat": 12.9648331, "lon": 77.599944}, {"type": "node", "id": 11587545305, "lat": 12.9730839, "lon": 77.6199501}, {"type": "node", "id": 11602938166, "lat": 12.9107771, "lon": 77.5993001, "tags": {"name": "Fountain Tree", "tourism": "hotel"}}, {"type": "node", "id": 11617890643, "lat": 12.9083896, "lon": 77.6010602, "tags": {"name": "Greenpark Bengaluru", "tourism": "hotel"}}, {"type": "node", "id": 11652384369, "lat": 13.0352071, "lon": 77.6313287, "tags": {"tourism": "hotel"}}, {"type": "node", "id": 11652384370, "lat": 13.0392902, "lon": 77.624441, "tags": {"tourism": "hotel"}}, {"type": "node", "id": 11665637079, "lat": 12.9644349, "lon": 77.5982536, "tags": {"name": "Adarsh Hamilton", "tourism": "hotel"}}, {"type": "node", "id": 11676514153, "lat": 12.9893742, "lon": 77.5947726}, {"type": "node", "id": 11677179243, "lat": 12.9803053, "lon": 77.5753071, "tags": {"check_date": "2024-02-29", "name": "Hotel Fortuner Palace", "tourism": "hotel"}}, {"type": "node", "id": 11677179250, "lat": 12.9795168, "lon": 77.5748096, "tags": {"check_date": "2024-02-29", "name": "Sandhya Residency", "tourism": "hotel"}}, {"type": "node", "id": 11677179253, "lat": 12.9781312, "lon": 77.5751887, "tags": {"check_date": "2024-02-29", "name": "Hotel Nest Rooms", "tourism": "hotel"}}, {"type": "node", "id": 11677179254, "lat": 12.977964, "lon": 77.5752147, "tags": {"check_date": "2024-02-29", "name": "Hotel Adora", "tourism": "hotel"}}, {"type": "node", "id": 11677179260, "lat": 12.9783733, "lon": 77.576356, "tags": {"check_date": "2024-02-29", "name": "Embassy Hotel", "tourism": "hotel"}}, {"type": "node", "id": 11681984869, "lat": 12.9773382, "lon": 77.5754024, "tags": {"check_date": "2024-03-01", "name": "Hotel Pawansree", "tourism": "hotel"}}, {"type": "node", "id": 11684501906, "lat": 12.977412, "lon": 77.6271225, "tags": {"check_date": "2024-03-02", "name": "Tierra Woods A Business Hotel", "tourism": "hotel"}}, {"type": "node", "id": 11684647126, "lat": 12.987215, "lon": 77.5745717, "tags": {"check_date": "2024-03-02", "name": "Modern Hotel", "tourism": "hotel"}}, {"type": "node", "id": 11684647129, "lat": 12.9886039, "lon": 77.5743879, "tags": {"check_date": "2024-03-02", "name": "Kalyan Lodge", "tourism": "hotel"}}, {"type": "node", "id": 11684876152, "lat": 13.022564, "lon": 77.552725, "tags": {"check_date": "2024-03-02", "name": "Sri Ganesh Lodge", "tourism": "hotel"}}, {"type": "node", "id": 11684876157, "lat": 13.022011, "lon": 77.553635, "tags": {"check_date": "2024-03-02", "name": "Bangalore Residency", "tourism": "hotel"}}, {"type": "node", "id": 11684876158, "lat": 13.0220727, "lon": 77.5536787, "tags": {"check_date": "2024-03-02", "mobile": "+916362878557", "name": "Sky Inns", "phone": "+91 80 2990 0315", "tourism": "hotel", "website": "https://www.skyinns.in"}}, {"type": "node", "id": 11696327703, "lat": 13.0414526, "lon": 77.6201874}, {"type": "node", "id": 11696327704, "lat": 13.0415412, "lon": 77.6201947}, {"type": "node", "id": 11696866842, "lat": 12.9798777, "lon": 77.5866439}, {"type": "node", "id": 11696866843, "lat": 12.9794773, "lon": 77.586522}, {"type": "node", "id": 11696866844, "lat": 12.9799722, "lon": 77.5857381}, {"type": "node", "id": 11738964998, "lat": 13.054191, "lon": 77.5084393, "tags": {"name": "The Ventura Grand Hotel", "tourism": "hotel"}}, {"type": "node", "id": 11774879292, "lat": 13.054313, "lon": 77.5926656}, {"type": "node", "id": 11774879293, "lat": 13.0542172, "lon": 77.5932197}, {"type": "node", "id": 11780306793, "lat": 12.9553547, "lon": 77.6407704}, {"type": "node", "id": 11780306794, "lat": 12.9553155, "lon": 77.6412378}, {"type": "node", "id": 11780306795, "lat": 12.9556023, "lon": 77.6412512}, {"type": "node", "id": 11780306796, "lat": 12.9556245, "lon": 77.6407926}, {"type": "node", "id": 11836733632, "lat": 12.9259511, "lon": 77.6770405, "tags": {"name": "Velvette", "tourism": "hotel"}}, {"type": "node", "id": 11865663815, "lat": 13.0582948, "lon": 77.5860233, "tags": {"access": "private", "barrier": "gate"}}, {"type": "node", "id": 11868278511, "lat": 12.9740091, "lon": 77.6186596}, {"type": "node", "id": 11868278514, "lat": 12.9735215, "lon": 77.6176232}, {"type": "node", "id": 11869110972, "lat": 12.925273, "lon": 77.6345868, "tags": {"addr:street": "1st cross, 1st block Koramangala", "name": "Hypons Hotel", "place": "Bengaluru", "postal_code": "560034", "tourism": "hotel"}}, {"type": "node", "id": 11878470074, "lat": 13.0446641, "lon": 77.6264389, "tags": {"check_date": "2024-05-04", "name": "Howard Johnson By Wyndham", "tourism": "hotel"}}, {"type": "node", "id": 11888546695, "lat": 13.0287365, "lon": 77.5413612}, {"type": "node", "id": 11888546696, "lat": 13.0292759, "lon": 77.5416797}, {"type": "node", "id": 11896618319, "lat": 12.9995618, "lon": 77.6766252, "tags": {"brand": "Treebo Trend", "brand:wikidata": "Q122214091", "check_date": "2024-05-11", "name": "New Light Suites", "name:en": "New Light Suites", "tourism": "hotel"}}, {"type": "node", "id": 11938912173, "lat": 13.0590723, "lon": 77.5860558}, {"type": "node", "id": 11938912174, "lat": 13.0590603, "lon": 77.5861008}, {"type": "node", "id": 11938912177, "lat": 13.0590003, "lon": 77.5863254}, {"type": "node", "id": 11938912178, "lat": 13.0589862, "lon": 77.5863782}, {"type": "node", "id": 11949300810, "lat": 13.0591987, "lon": 77.5925501, "tags": {"addr:floor": "3", "check_date": "2024-06-01", "level": "3", "name": "Oyo Sri Sai Guru Comforts", "name:en": "Oyo Sri Sai Guru Comforts", "tourism": "hotel"}}, {"type": "node", "id": 11957603596, "lat": 12.8908703, "lon": 77.6060528, "tags": {"addr:city": "Bengaluru", "addr:housenumber": "133", "addr:postcode": "560076", "name": "Sri Sai Suites", "phone": "07899561261", "rooms": "10", "tourism": "hotel", "website": "https://www.treebo.com/hotels-in-bangalore/sri-sai-suites-churned-bannerghatta-main-road-2462/"}}, {"type": "node", "id": 11999392559, "lat": 13.0246762, "lon": 77.5468851}, {"type": "node", "id": 11999392560, "lat": 13.024104, "lon": 77.5466202}, {"type": "node", "id": 11999392561, "lat": 13.0239342, "lon": 77.5470091}, {"type": "node", "id": 12031661012, "lat": 12.9164559, "lon": 77.5914845, "tags": {"name": "Woody's", "tourism": "hotel"}}, {"type": "node", "id": 12031695719, "lat": 12.9172625, "lon": 77.6089283, "tags": {"name": "Olive by Embassy Group", "tourism": "hotel"}}, {"type": "node", "id": 12053301835, "lat": 12.9711343, "lon": 77.6081214}, {"type": "node", "id": 12053301836, "lat": 12.9713887, "lon": 77.6082064}, {"type": "node", "id": 12053301838, "lat": 12.9711493, "lon": 77.6080756}, {"type": "node", "id": 12053301840, "lat": 12.9715253, "lon": 77.6081523}, {"type": "node", "id": 12053313080, "lat": 12.9725365, "lon": 77.6083068}, {"type": "node", "id": 12053313081, "lat": 12.9721898, "lon": 77.6084766}, {"type": "node", "id": 12053313082, "lat": 12.972821, "lon": 77.6088936}, {"type": "node", "id": 12053313083, "lat": 12.9719336, "lon": 77.6089812}, {"type": "node", "id": 12077213927, "lat": 12.9712251, "lon": 77.608775}, {"type": "node", "id": 12077213928, "lat": 12.9711993, "lon": 77.6079233}, {"type": "node", "id": 12077213929, "lat": 12.9714194, "lon": 77.6078638}, {"type": "node", "id": 12077213930, "lat": 12.9717025, "lon": 77.6086488}, {"type": "node", "id": 12080146494, "lat": 12.9606629, "lon": 77.647875}, {"type": "node", "id": 12080146495, "lat": 12.9606441, "lon": 77.6480091}, {"type": "node", "id": 12112044952, "lat": 12.9742192, "lon": 77.6178918}, {"type": "node", "id": 12112044955, "lat": 12.9739981, "lon": 77.6187019}, {"type": "node", "id": 12112045008, "lat": 12.9736693, "lon": 77.617643}, {"type": "node", "id": 12112526187, "lat": 12.9850648, "lon": 77.5810356}, {"type": "node", "id": 12112526188, "lat": 12.9846114, "lon": 77.5809753}, {"type": "node", "id": 12112526189, "lat": 12.9846375, "lon": 77.5807299}, {"type": "node", "id": 12112526190, "lat": 12.9850099, "lon": 77.5807647}, {"type": "node", "id": 12115251885, "lat": 12.9295732, "lon": 77.631965, "tags": {"addr:postcode": "560034", "addr:street": "7th Cross Road", "name": "Ananya Comforts", "tourism": "hotel"}}, {"type": "node", "id": 12118748992, "lat": 12.9749706, "lon": 77.5993115}, {"type": "node", "id": 12118748993, "lat": 12.9748658, "lon": 77.5996475}, {"type": "node", "id": 12118748994, "lat": 12.9745639, "lon": 77.5995411}, {"type": "node", "id": 12118752229, "lat": 12.9665973, "lon": 77.5959927}, {"type": "node", "id": 12119558739, "lat": 12.9675126, "lon": 77.5963924}, {"type": "node", "id": 12144440752, "lat": 12.9207294, "lon": 77.620094, "tags": {"air_conditioning": "yes", "check_date": "2024-08-29", "name": "Eyrie Nest", "source": "survey", "tourism": "hotel"}}, {"type": "node", "id": 12162043357, "lat": 12.9443025, "lon": 77.5973, "tags": {"name": "Shanthi Rooms", "tourism": "hotel", "wheelchair": "no"}},